{
 "spots": [
  {
   "cid": "127476",
   "name": "소양강댐",
   "category": "관광지",
   "lat": 37.9487918001,
   "lng": 127.8150725784,
   "regionSlug": "chuncheon",
   "image": "http://tong.visitkorea.or.kr/cms/resource/19/2742919_image2_1.jpg"
  },
  {
   "cid": "128934",
   "name": "소양호 유람선",
   "category": "관광지",
   "lat": 37.958016,
   "lng": 127.81388,
   "regionSlug": "chuncheon",
   "image": "https://tong.visitkorea.or.kr/cms/resource/56/3046456_image2_1.jpg"
  },
  {
   "cid": "2777911",
   "name": "미평 봉화산 산림욕장",
   "category": "관광지",
   "lat": 34.7750164603,
   "lng": 127.7151941056,
   "regionSlug": "yeosu",
   "image": "http://tong.visitkorea.or.kr/cms/resource/55/3421855_image2_1.jpg"
  },
  {
   "cid": "2752382",
   "name": "낭도항",
   "category": "관광지",
   "lat": 34.6051602167,
   "lng": 127.5387971543,
   "regionSlug": "yeosu",
   "image": "http://tong.visitkorea.or.kr/cms/resource/23/3373423_image2_1.JPG"
  },
  {
   "cid": "628379",
   "name": "춘천통나무집닭갈비",
   "category": "음식점",
   "lat": 37.9331321024,
   "lng": 127.7932528104,
   "regionSlug": "chuncheon",
   "image": "http://tong.visitkorea.or.kr/cms/resource/96/3046496_image2_1.jpg"
  },
  {
   "cid": "125445",
   "name": "생각하는 정원",
   "category": "관광지",
   "lat": 33.3253707253964,
   "lng": 126.255164378424,
   "regionSlug": "jeju",
   "image": "https://tong.visitkorea.or.kr/cms/resource/76/4031676_image2_1.jpg"
  },
  {
   "cid": "126339",
   "name": "금산사(김제)",
   "category": "관광지",
   "lat": 35.7227452882,
   "lng": 127.0534614685,
   "regionSlug": "jeonju",
   "image": "http://tong.visitkorea.or.kr/cms/resource/48/3533448_image2_1.jpg"
  },
  {
   "cid": "129786",
   "name": "국립전주박물관",
   "category": "문화시설",
   "lat": 35.801323091,
   "lng": 127.0897200882,
   "regionSlug": "jeonju",
   "image": "http://tong.visitkorea.or.kr/cms/resource/30/3442230_image2_1.jpg"
  },
  {
   "cid": "129686",
   "name": "구봉산 전망대 카페거리",
   "category": "관광지",
   "lat": 37.8925,
   "lng": 127.777,
   "regionSlug": "chuncheon",
   "image": "https://tong.visitkorea.or.kr/cms/resource/79/3492879_image2_1.JPG"
  },
  {
   "cid": "2831210",
   "name": "DMZ 생생누리",
   "category": "관광지",
   "lat": 37.890584444,
   "lng": 126.7397336451,
   "regionSlug": "incheon",
   "image": "http://tong.visitkorea.or.kr/cms/resource/18/2874218_image2_1.jpg"
  },
  {
   "cid": "2660802",
   "name": "오설록 티뮤지엄",
   "category": "문화시설",
   "lat": 33.3060818422347,
   "lng": 126.289392182586,
   "regionSlug": "jeju",
   "image": "https://tong.visitkorea.or.kr/cms/resource/57/3497257_image2_1.jpg"
  },
  {
   "cid": "2390111",
   "name": "동광리농촌체험마을",
   "category": "관광지",
   "lat": 33.3076403586,
   "lng": 126.3399267501,
   "regionSlug": "jeju",
   "image": "http://tong.visitkorea.or.kr/cms/resource/15/3024315_image2_1.jpg"
  },
  {
   "cid": "130512",
   "name": "제주아트서커스",
   "category": "문화시설",
   "lat": 33.3143650897646,
   "lng": 126.344922945991,
   "regionSlug": "jeju",
   "image": "https://tong.visitkorea.or.kr/cms/resource/62/3034562_image2_1.jpg"
  },
  {
   "cid": "1839491",
   "name": "[제주올레 3코스] 온평-표선 올레 (A)",
   "category": "레포츠",
   "lat": 33.4052580126,
   "lng": 126.9039284074,
   "regionSlug": "jeju",
   "image": "http://tong.visitkorea.or.kr/cms/resource/16/3550516_image2_1.jpg"
  },
  {
   "cid": "130723",
   "name": "김영갑갤러리두모악",
   "category": "문화시설",
   "lat": 33.37240806,
   "lng": 126.8542667942,
   "regionSlug": "jeju",
   "image": "http://tong.visitkorea.or.kr/cms/resource/57/3548157_image2_1.jpg"
  },
  {
   "cid": "635701",
   "name": "신풍 신천 바다목장",
   "category": "관광지",
   "lat": 33.3560016909,
   "lng": 126.8638107873,
   "regionSlug": "jeju",
   "image": "http://tong.visitkorea.or.kr/cms/resource/48/3401548_image2_1.jpg"
  },
  {
   "cid": "127548",
   "name": "파주 임진각(평화누리공원)",
   "category": "관광지",
   "lat": 37.8895364868545,
   "lng": 126.740185526631,
   "regionSlug": "incheon",
   "image": "https://tong.visitkorea.or.kr/cms/resource/31/3497231_image2_1.jpg"
  },
  {
   "cid": "125970",
   "name": "청주 흥덕사지",
   "category": "관광지",
   "lat": 36.644583476,
   "lng": 127.4722188308,
   "regionSlug": "cheongju",
   "image": "http://tong.visitkorea.or.kr/cms/resource/44/3390544_image2_1.jpg"
  },
  {
   "cid": "126662",
   "name": "충렬사(통영)",
   "category": "관광지",
   "lat": 34.8466459874541,
   "lng": 128.417434100219,
   "regionSlug": "tongyeong",
   "image": null
  },
  {
   "cid": "128794",
   "name": "표선해수욕장",
   "category": "관광지",
   "lat": 33.3256630271,
   "lng": 126.8424244429,
   "regionSlug": "jeju",
   "image": "http://tong.visitkorea.or.kr/cms/resource/01/3034601_image2_1.jpg"
  },
  {
   "cid": "2363045",
   "name": "와랑와랑",
   "category": "음식점",
   "lat": 33.2722336039511,
   "lng": 126.676529228064,
   "regionSlug": "jeju",
   "image": null
  },
  {
   "cid": "128345",
   "name": "제주허브동산",
   "category": "관광지",
   "lat": 33.3304565115,
   "lng": 126.8155933234,
   "regionSlug": "jeju",
   "image": "http://tong.visitkorea.or.kr/cms/resource/86/3551486_image2_1.jpg"
  },
  {
   "cid": "130474",
   "name": "제주민속촌",
   "category": "문화시설",
   "lat": 33.3213162956,
   "lng": 126.8431022619,
   "regionSlug": "jeju",
   "image": "http://tong.visitkorea.or.kr/cms/resource/43/3534943_image2_1.jpg"
  },
  {
   "cid": "132190",
   "name": "부산 자갈치시장",
   "category": "쇼핑",
   "lat": 35.0966511661,
   "lng": 129.0306042201,
   "regionSlug": "busan",
   "image": "http://tong.visitkorea.or.kr/cms/resource/13/2941313_image2_1.bmp"
  },
  {
   "cid": "128810",
   "name": "동백공원",
   "category": "관광지",
   "lat": 35.1536609221,
   "lng": 129.1523226328,
   "regionSlug": "busan",
   "image": "http://tong.visitkorea.or.kr/cms/resource/62/3575962_image2_1.jpg"
  },
  {
   "cid": "127488",
   "name": "BIFF 광장",
   "category": "관광지",
   "lat": 35.0980089584166,
   "lng": 129.032004281096,
   "regionSlug": "busan",
   "image": "https://tong.visitkorea.or.kr/cms/resource/19/3493419_image2_1.jpg"
  },
  {
   "cid": "346650",
   "name": "용화사(청주)",
   "category": "관광지",
   "lat": 36.6418617421,
   "lng": 127.4820180268,
   "regionSlug": "cheongju",
   "image": "http://tong.visitkorea.or.kr/cms/resource/28/3461428_image2_1.jpg"
  },
  {
   "cid": "127925",
   "name": "광안리해변 테마거리",
   "category": "관광지",
   "lat": 35.1551657503,
   "lng": 129.1221363273,
   "regionSlug": "busan",
   "image": "http://tong.visitkorea.or.kr/cms/resource/42/3071042_image2_1.JPG"
  },
  {
   "cid": "229912",
   "name": "씨라이프부산아쿠아리움",
   "category": "관광지",
   "lat": 35.159196575,
   "lng": 129.1610328343,
   "regionSlug": "busan",
   "image": "http://tong.visitkorea.or.kr/cms/resource/09/3020609_image2_1.jpg"
  },
  {
   "cid": "126200",
   "name": "도산서원 [유네스코 세계유산]",
   "category": "관광지",
   "lat": 36.7278936597908,
   "lng": 128.840353646824,
   "regionSlug": "andong",
   "image": "https://tong.visitkorea.or.kr/cms/resource/06/4064706_image2_1.JPG"
  },
  {
   "cid": "126674",
   "name": "해운대 달맞이길",
   "category": "관광지",
   "lat": 35.1576790506242,
   "lng": 129.182540419138,
   "regionSlug": "busan",
   "image": "https://tong.visitkorea.or.kr/cms/resource/48/3412848_image2_1.jpg"
  },
  {
   "cid": "2381553",
   "name": "부산영화촬영스튜디오",
   "category": "관광지",
   "lat": 35.1625180008,
   "lng": 129.1380958485,
   "regionSlug": "busan",
   "image": "http://tong.visitkorea.or.kr/cms/resource/73/3337973_image2_1.jpg"
  },
  {
   "cid": "129602",
   "name": "청사포",
   "category": "관광지",
   "lat": 35.1604039113018,
   "lng": 129.192189444504,
   "regionSlug": "busan",
   "image": "https://tong.visitkorea.or.kr/cms/resource/30/3495930_image2_1.jpg"
  },
  {
   "cid": "2381567",
   "name": "문탠로드",
   "category": "레포츠",
   "lat": 35.1574970351,
   "lng": 129.1756010591,
   "regionSlug": "busan",
   "image": "http://tong.visitkorea.or.kr/cms/resource/35/3575935_image2_1.jpg"
  },
  {
   "cid": "2610499",
   "name": "구룡포 말목장성탐방로",
   "category": "관광지",
   "lat": 35.9984533569913,
   "lng": 129.549001505257,
   "regionSlug": "gyeongju",
   "image": "https://tong.visitkorea.or.kr/cms/resource/54/4009954_image2_1.jpg"
  },
  {
   "cid": "126218",
   "name": "경주 문무대왕릉",
   "category": "관광지",
   "lat": 35.7381432427,
   "lng": 129.4868298719,
   "regionSlug": "gyeongju",
   "image": "http://tong.visitkorea.or.kr/cms/resource/08/3534308_image2_1.jpg"
  },
  {
   "cid": "128637",
   "name": "경주 감은사지",
   "category": "관광지",
   "lat": 35.7483222,
   "lng": 129.4766275,
   "regionSlug": "gyeongju",
   "image": "https://tong.visitkorea.or.kr/cms/resource/19/4063219_image2_1.jpg"
  },
  {
   "cid": "128651",
   "name": "경주 이견대",
   "category": "관광지",
   "lat": 35.7442147219,
   "lng": 129.4837271913,
   "regionSlug": "gyeongju",
   "image": "http://tong.visitkorea.or.kr/cms/resource/11/3542511_image2_1.jpg"
  },
  {
   "cid": "2732165",
   "name": "양포항",
   "category": "관광지",
   "lat": 35.8815082695,
   "lng": 129.5198978597,
   "regionSlug": "gyeongju",
   "image": "http://tong.visitkorea.or.kr/cms/resource/83/3528283_image2_1.jpg"
  },
  {
   "cid": "127217",
   "name": "포항 장기읍성",
   "category": "관광지",
   "lat": 35.8960726660705,
   "lng": 129.488743498349,
   "regionSlug": "gyeongju",
   "image": "https://tong.visitkorea.or.kr/cms/resource/69/4060869_image2_1.png"
  },
  {
   "cid": "129510",
   "name": "은적사(군산)",
   "category": "관광지",
   "lat": 35.9748658021,
   "lng": 126.6850378051,
   "regionSlug": "gunsan",
   "image": "http://tong.visitkorea.or.kr/cms/resource/14/3055614_image2_1.jpg"
  },
  {
   "cid": "127714",
   "name": "괴시리 전통마을",
   "category": "관광지",
   "lat": 36.5431729856,
   "lng": 129.4165708929,
   "regionSlug": "gyeongju",
   "image": "http://tong.visitkorea.or.kr/cms/resource/21/3039221_image2_1.JPG"
  },
  {
   "cid": "129778",
   "name": "국립경주박물관",
   "category": "문화시설",
   "lat": 35.8304796951968,
   "lng": 129.2283703802744,
   "regionSlug": "gyeongju",
   "image": "https://tong.visitkorea.or.kr/cms/resource/99/3509099_image2_1.jpg"
  },
  {
   "cid": "130858",
   "name": "신라역사과학관",
   "category": "문화시설",
   "lat": 35.8071099137,
   "lng": 129.3112238105,
   "regionSlug": "gyeongju",
   "image": null
  },
  {
   "cid": "128117",
   "name": "경주 월성",
   "category": "관광지",
   "lat": 35.8321721215,
   "lng": 129.2250084253,
   "regionSlug": "gyeongju",
   "image": "http://tong.visitkorea.or.kr/cms/resource/33/3534833_image2_1.jpg"
  },
  {
   "cid": "126204",
   "name": "경주 석빙고",
   "category": "관광지",
   "lat": 35.8332025414,
   "lng": 129.2239418227,
   "regionSlug": "gyeongju",
   "image": "http://tong.visitkorea.or.kr/cms/resource/93/3412493_image2_1.jpg"
  },
  {
   "cid": "128116",
   "name": "경주 계림",
   "category": "관광지",
   "lat": 35.8326469552,
   "lng": 129.218997827,
   "regionSlug": "gyeongju",
   "image": "http://tong.visitkorea.or.kr/cms/resource/29/3535529_image2_1.jpg"
  },
  {
   "cid": "126207",
   "name": "경주 첨성대",
   "category": "관광지",
   "lat": 35.8343303426799,
   "lng": 129.218534537847,
   "regionSlug": "gyeongju",
   "image": "https://tong.visitkorea.or.kr/cms/resource/81/3554381_image2_1.jpg"
  },
  {
   "cid": "1621391",
   "name": "경주향교",
   "category": "관광지",
   "lat": 35.8314972235467,
   "lng": 129.217324190232,
   "regionSlug": "gyeongju",
   "image": "https://tong.visitkorea.or.kr/cms/resource/40/3518940_image2_1.jpg"
  },
  {
   "cid": "134159",
   "name": "이풍녀 구로쌈밥",
   "category": "음식점",
   "lat": 35.8359993321,
   "lng": 129.2178145021,
   "regionSlug": "gyeongju",
   "image": "http://tong.visitkorea.or.kr/cms/resource/85/3551085_image2_1.jpg"
  },
  {
   "cid": "126214",
   "name": "천마총(대릉원)",
   "category": "관광지",
   "lat": 35.8386877792,
   "lng": 129.2104983997,
   "regionSlug": "gyeongju",
   "image": "http://tong.visitkorea.or.kr/cms/resource/19/3491219_image2_1.jpg"
  },
  {
   "cid": "126775",
   "name": "봉황대(의령)",
   "category": "관광지",
   "lat": 35.4369,
   "lng": 128.2413,
   "regionSlug": "gyeongju",
   "image": "https://tong.visitkorea.or.kr/cms/resource/26/3490826_image2_1.jpg"
  },
  {
   "cid": "127985",
   "name": "경주 황룡사지",
   "category": "관광지",
   "lat": 35.8374438969,
   "lng": 129.2328298118,
   "regionSlug": "gyeongju",
   "image": "http://tong.visitkorea.or.kr/cms/resource/86/3542386_image2_1.jpg"
  },
  {
   "cid": "317503",
   "name": "분황사",
   "category": "관광지",
   "lat": 35.8407687574982,
   "lng": 129.233669042029,
   "regionSlug": "gyeongju",
   "image": "https://tong.visitkorea.or.kr/cms/resource/98/3506098_image2_1.jpg"
  },
  {
   "cid": "128017",
   "name": "영취산(여수)",
   "category": "관광지",
   "lat": 34.8167367653,
   "lng": 127.7140598088,
   "regionSlug": "yeosu",
   "image": "http://tong.visitkorea.or.kr/cms/resource/85/3548985_image2_1.JPG"
  },
  {
   "cid": "126782",
   "name": "흥국사(여수)",
   "category": "관광지",
   "lat": 34.8228580855,
   "lng": 127.7016301856,
   "regionSlug": "yeosu",
   "image": "http://tong.visitkorea.or.kr/cms/resource/84/3027284_image2_1.jpg"
  },
  {
   "cid": "2514658",
   "name": "고소동 천사벽화마을",
   "category": "관광지",
   "lat": 34.7383189238967,
   "lng": 127.740569642671,
   "regionSlug": "yeosu",
   "image": "https://tong.visitkorea.or.kr/cms/resource/12/3520812_image2_1.jpg"
  },
  {
   "cid": "2647864",
   "name": "소호동동다리",
   "category": "관광지",
   "lat": 34.7388416231,
   "lng": 127.6508812064,
   "regionSlug": "yeosu",
   "image": "http://tong.visitkorea.or.kr/cms/resource/61/2647861_image2_1.bmp"
  },
  {
   "cid": "2496315",
   "name": "낭도",
   "category": "관광지",
   "lat": 34.608462,
   "lng": 127.541431,
   "regionSlug": "yeosu",
   "image": "https://tong.visitkorea.or.kr/cms/resource/95/3521495_image2_1.jpg"
  },
  {
   "cid": "133342",
   "name": "청송통닭",
   "category": "음식점",
   "lat": 36.6318407738,
   "lng": 127.4878400037,
   "regionSlug": "cheongju",
   "image": null
  },
  {
   "cid": "685143",
   "name": "모산방",
   "category": "음식점",
   "lat": 35.9629189386603,
   "lng": 126.681707702542,
   "regionSlug": "gunsan",
   "image": "https://tong.visitkorea.or.kr/cms/resource/85/1977385_image2_1.jpg"
  },
  {
   "cid": "128025",
   "name": "한려해상국립공원 (오동도)",
   "category": "관광지",
   "lat": 34.7443241844623,
   "lng": 127.764111728638,
   "regionSlug": "yeosu",
   "image": "https://tong.visitkorea.or.kr/cms/resource/13/3499913_image2_1.jpg"
  },
  {
   "cid": "129414",
   "name": "금오도",
   "category": "관광지",
   "lat": 34.5225925094,
   "lng": 127.7494836083,
   "regionSlug": "yeosu",
   "image": "http://tong.visitkorea.or.kr/cms/resource/74/3572074_image2_1.jpg"
  },
  {
   "cid": "126280",
   "name": "안도해수욕장",
   "category": "관광지",
   "lat": 34.4905110672,
   "lng": 127.8125372529,
   "regionSlug": "yeosu",
   "image": "http://tong.visitkorea.or.kr/cms/resource/54/3548954_image2_1.JPG"
  },
  {
   "cid": "129281",
   "name": "해금강유람선",
   "category": "관광지",
   "lat": 34.742059096,
   "lng": 128.6626929257,
   "regionSlug": "yeosu",
   "image": "http://tong.visitkorea.or.kr/cms/resource/18/3519118_image2_1.jpg"
  },
  {
   "cid": "126968",
   "name": "사도",
   "category": "관광지",
   "lat": 34.592734117,
   "lng": 127.5556321046,
   "regionSlug": "yeosu",
   "image": "http://tong.visitkorea.or.kr/cms/resource/90/3580290_image2_1.jpg"
  },
  {
   "cid": "2381140",
   "name": "하화도 꽃섬길",
   "category": "레포츠",
   "lat": 34.5946183318,
   "lng": 127.6192931613,
   "regionSlug": "yeosu",
   "image": "http://tong.visitkorea.or.kr/cms/resource/35/3018735_image2_1.jpg"
  },
  {
   "cid": "129149",
   "name": "백야도 등대",
   "category": "관광지",
   "lat": 34.609381165,
   "lng": 127.6539175431,
   "regionSlug": "yeosu",
   "image": "http://tong.visitkorea.or.kr/cms/resource/94/3549594_image2_1.JPG"
  },
  {
   "cid": "129784",
   "name": "강릉 오죽헌·시립박물관",
   "category": "문화시설",
   "lat": 37.77913887484466,
   "lng": 128.8796621016977,
   "regionSlug": "gangneung",
   "image": "https://tong.visitkorea.or.kr/cms/resource/38/3527138_image2_1.jpg"
  },
  {
   "cid": "1318353",
   "name": "강릉자수박물관",
   "category": "문화시설",
   "lat": 37.7779127154835,
   "lng": 128.880274972189,
   "regionSlug": "gangneung",
   "image": "https://tong.visitkorea.or.kr/cms/resource/51/3527851_image2_1.jpg"
  },
  {
   "cid": "129337",
   "name": "강릉 해살이마을",
   "category": "관광지",
   "lat": 37.7929261321,
   "lng": 128.8109759564,
   "regionSlug": "gangneung",
   "image": "http://tong.visitkorea.or.kr/cms/resource/60/3383760_image2_1.JPG"
  },
  {
   "cid": "126898",
   "name": "강릉 통일공원",
   "category": "관광지",
   "lat": 37.72040541401076,
   "lng": 128.9983813982788,
   "regionSlug": "gangneung",
   "image": "https://tong.visitkorea.or.kr/cms/resource/50/3516850_image2_1.jpg"
  },
  {
   "cid": "125766",
   "name": "등명낙가사(강릉)",
   "category": "관광지",
   "lat": 37.7116288147888,
   "lng": 129.006775959352,
   "regionSlug": "gangneung",
   "image": "https://tong.visitkorea.or.kr/cms/resource/53/3378353_image2_1.JPG"
  },
  {
   "cid": "127951",
   "name": "하슬라아트월드",
   "category": "관광지",
   "lat": 37.7064767296551,
   "lng": 129.010203568499,
   "regionSlug": "gangneung",
   "image": "https://tong.visitkorea.or.kr/cms/resource/77/3349677_image2_1.jpg"
  },
  {
   "cid": "128757",
   "name": "정동진해변",
   "category": "관광지",
   "lat": 37.69136032810732,
   "lng": 129.0325745067553,
   "regionSlug": "gangneung",
   "image": "https://tong.visitkorea.or.kr/cms/resource/82/3534482_image2_1.jpg"
  },
  {
   "cid": "128721",
   "name": "모래시계공원",
   "category": "관광지",
   "lat": 37.6871129519201,
   "lng": 129.037520988868,
   "regionSlug": "gangneung",
   "image": "https://tong.visitkorea.or.kr/cms/resource/99/2921799_image2_1.jpg"
  },
  {
   "cid": "128998",
   "name": "썬크루즈 테마공원",
   "category": "관광지",
   "lat": 37.6835162541018,
   "lng": 129.041981783225,
   "regionSlug": "gangneung",
   "image": "https://tong.visitkorea.or.kr/cms/resource/74/3374174_image2_1.JPG"
  },
  {
   "cid": "126622",
   "name": "전주 풍남문",
   "category": "관광지",
   "lat": 35.81350835360924,
   "lng": 127.1475789981373,
   "regionSlug": "jeonju",
   "image": "https://tong.visitkorea.or.kr/cms/resource/63/3533063_image2_1.jpg"
  },
  {
   "cid": "126387",
   "name": "전주 풍패지관 (전주객사)",
   "category": "관광지",
   "lat": 35.8185,
   "lng": 127.1454,
   "regionSlug": "jeonju",
   "image": "https://tong.visitkorea.or.kr/cms/resource/64/3066164_image2_1.jpg"
  },
  {
   "cid": "579046",
   "name": "가족회관",
   "category": "음식점",
   "lat": 35.8170222283468,
   "lng": 127.145942185273,
   "regionSlug": "jeonju",
   "image": null
  },
  {
   "cid": "250331",
   "name": "전주전동성당",
   "category": "관광지",
   "lat": 35.81382028840563,
   "lng": 127.1492841195506,
   "regionSlug": "jeonju",
   "image": "https://tong.visitkorea.or.kr/cms/resource/89/2641989_image2_1.jpg"
  },
  {
   "cid": "125911",
   "name": "청주 용두사지 철당간",
   "category": "관광지",
   "lat": 36.6330934409,
   "lng": 127.4896481403,
   "regionSlug": "cheongju",
   "image": "http://tong.visitkorea.or.kr/cms/resource/43/3461443_image2_1.jpg"
  },
  {
   "cid": "1594374",
   "name": "전주전통한지원",
   "category": "관광지",
   "lat": 35.81599475,
   "lng": 127.1535334706,
   "regionSlug": "jeonju",
   "image": "http://tong.visitkorea.or.kr/cms/resource/29/3064729_image2_1.jpg"
  },
  {
   "cid": "125964",
   "name": "청주 상당산성",
   "category": "관광지",
   "lat": 36.6618972846993,
   "lng": 127.538437248137,
   "regionSlug": "cheongju",
   "image": null
  },
  {
   "cid": "299977",
   "name": "단호사(충주)",
   "category": "관광지",
   "lat": 36.9467593263,
   "lng": 127.9009357544,
   "regionSlug": "cheongju",
   "image": "http://tong.visitkorea.or.kr/cms/resource/33/3061833_image2_1.jpg"
  },
  {
   "cid": "133228",
   "name": "한국집",
   "category": "음식점",
   "lat": 35.8165251532,
   "lng": 127.1482367059,
   "regionSlug": "jeonju",
   "image": "http://tong.visitkorea.or.kr/cms/resource/09/3064709_image2_1.jpg"
  },
  {
   "cid": "479910",
   "name": "정혜사(전주)",
   "category": "관광지",
   "lat": 35.8043013857,
   "lng": 127.139151723,
   "regionSlug": "jeonju",
   "image": "http://tong.visitkorea.or.kr/cms/resource/46/3066246_image2_1.jpg"
  },
  {
   "cid": "126627",
   "name": "완산공원",
   "category": "관광지",
   "lat": 35.8046986105,
   "lng": 127.1419070225,
   "regionSlug": "jeonju",
   "image": "http://tong.visitkorea.or.kr/cms/resource/45/3529545_image2_1.jpg"
  },
  {
   "cid": "298199",
   "name": "남고사(전주)",
   "category": "관광지",
   "lat": 35.7997439139,
   "lng": 127.1589500803,
   "regionSlug": "jeonju",
   "image": "http://tong.visitkorea.or.kr/cms/resource/49/3064749_image2_1.jpg"
  },
  {
   "cid": "126620",
   "name": "전주 남고산성",
   "category": "관광지",
   "lat": 35.7994,
   "lng": 127.1573,
   "regionSlug": "jeonju",
   "image": "https://tong.visitkorea.or.kr/cms/resource/25/3064725_image2_1.jpg"
  },
  {
   "cid": "264284",
   "name": "전북 전주 한옥마을 [슬로시티]",
   "category": "관광지",
   "lat": 35.8183167088,
   "lng": 127.1536278459,
   "regionSlug": "jeonju",
   "image": "http://tong.visitkorea.or.kr/cms/resource/50/3479250_image2_1.jpg"
  },
  {
   "cid": "126320",
   "name": "덕진공원",
   "category": "관광지",
   "lat": 35.8475156135,
   "lng": 127.1218687977,
   "regionSlug": "jeonju",
   "image": "http://tong.visitkorea.or.kr/cms/resource/54/3526454_image2_1.jpg"
  },
  {
   "cid": "126626",
   "name": "전주동물원",
   "category": "관광지",
   "lat": 35.8552623666,
   "lng": 127.145633146,
   "regionSlug": "jeonju",
   "image": "http://tong.visitkorea.or.kr/cms/resource/77/3552677_image2_1.jpg"
  },
  {
   "cid": "126512",
   "name": "광화문",
   "category": "관광지",
   "lat": 37.576072552,
   "lng": 126.9768042386,
   "regionSlug": "seoul",
   "image": "http://tong.visitkorea.or.kr/cms/resource/72/3069472_image2_1.JPG"
  },
  {
   "cid": "1604652",
   "name": "건청궁",
   "category": "관광지",
   "lat": 37.5760836609,
   "lng": 126.9767375783,
   "regionSlug": "seoul",
   "image": "http://tong.visitkorea.or.kr/cms/resource/10/2527110_image2_1.jpg"
  },
  {
   "cid": "126533",
   "name": "청와대 앞길",
   "category": "관광지",
   "lat": 37.5834864376289,
   "lng": 126.973751980892,
   "regionSlug": "seoul",
   "image": "https://tong.visitkorea.or.kr/cms/resource/93/3525393_image2_1.jpg"
  },
  {
   "cid": "2608977",
   "name": "국립민속박물관과 국립민속박물관 어린이박물관",
   "category": "관광지",
   "lat": 37.5816745310255,
   "lng": 126.978889955558,
   "regionSlug": "seoul",
   "image": "https://tong.visitkorea.or.kr/cms/resource/93/3512693_image2_1.jpg"
  },
  {
   "cid": "126525",
   "name": "서울 선릉과 정릉 [유네스코 세계유산]",
   "category": "관광지",
   "lat": 37.5074206801,
   "lng": 127.0471803291,
   "regionSlug": "seoul",
   "image": null
  },
  {
   "cid": "229901",
   "name": "코엑스",
   "category": "문화시설",
   "lat": 37.5117453937,
   "lng": 127.0591541159,
   "regionSlug": "seoul",
   "image": "http://tong.visitkorea.or.kr/cms/resource/43/3590343_image2_1.jpg"
  },
  {
   "cid": "126999",
   "name": "이태원 관광특구",
   "category": "관광지",
   "lat": 37.53392419699384,
   "lng": 126.9906554803029,
   "regionSlug": "seoul",
   "image": "https://tong.visitkorea.or.kr/cms/resource/49/3517449_image2_1.jpg"
  },
  {
   "cid": "127942",
   "name": "사직공원(서울)",
   "category": "관광지",
   "lat": 37.5758446558,
   "lng": 126.9687216489,
   "regionSlug": "seoul",
   "image": "http://tong.visitkorea.or.kr/cms/resource/83/3400583_image2_1.JPG"
  },
  {
   "cid": "578967",
   "name": "오대양물회식당",
   "category": "음식점",
   "lat": 36.0466635654823,
   "lng": 129.368097640101,
   "regionSlug": "pohang",
   "image": null
  },
  {
   "cid": "126510",
   "name": "종묘 [유네스코 세계유산]",
   "category": "관광지",
   "lat": 37.5710345779,
   "lng": 126.9951471543,
   "regionSlug": "seoul",
   "image": "http://tong.visitkorea.or.kr/cms/resource/15/3535215_image2_1.jpg"
  },
  {
   "cid": "2350389",
   "name": "버거룸181",
   "category": "음식점",
   "lat": 37.3930176207476,
   "lng": 126.642903521781,
   "regionSlug": "incheon",
   "image": "https://tong.visitkorea.or.kr/cms/resource/29/2050729_image2_1.jpg"
  },
  {
   "cid": "2350373",
   "name": "그리다디저트",
   "category": "음식점",
   "lat": 37.3859498261,
   "lng": 126.6435288242,
   "regionSlug": "incheon",
   "image": "http://tong.visitkorea.or.kr/cms/resource/95/2050695_image2_1.jpg"
  },
  {
   "cid": "1687791",
   "name": "어제 달천 충렬사비",
   "category": "관광지",
   "lat": 36.9458622775,
   "lng": 127.9047521039,
   "regionSlug": "cheongju",
   "image": "http://tong.visitkorea.or.kr/cms/resource/84/3062784_image2_1.JPG"
  },
  {
   "cid": "742171",
   "name": "송도컨벤시아",
   "category": "문화시설",
   "lat": 37.3890356252,
   "lng": 126.6461951621,
   "regionSlug": "incheon",
   "image": "http://tong.visitkorea.or.kr/cms/resource/77/3037277_image2_1.jpg"
  },
  {
   "cid": "1957680",
   "name": "월미 관광특구",
   "category": "관광지",
   "lat": 37.4714251763,
   "lng": 126.5964029776,
   "regionSlug": "incheon",
   "image": "http://tong.visitkorea.or.kr/cms/resource/18/3047118_image2_1.jpg"
  },
  {
   "cid": "1851364",
   "name": "인천도시역사관",
   "category": "문화시설",
   "lat": 37.3928266701,
   "lng": 126.6358737757,
   "regionSlug": "incheon",
   "image": "http://tong.visitkorea.or.kr/cms/resource/87/3073287_image2_1.jpg"
  },
  {
   "cid": "1619527",
   "name": "인천항 갑문",
   "category": "관광지",
   "lat": 37.46716799985072,
   "lng": 126.6040586694945,
   "regionSlug": "incheon",
   "image": "https://tong.visitkorea.or.kr/cms/resource/20/3517920_image2_1.jpg"
  },
  {
   "cid": "821412",
   "name": "인천대교",
   "category": "관광지",
   "lat": 37.4256657486,
   "lng": 126.5476448037,
   "regionSlug": "incheon",
   "image": "http://tong.visitkorea.or.kr/cms/resource/62/3393362_image2_1.JPG"
  },
  {
   "cid": "128767",
   "name": "을왕리해수욕장",
   "category": "관광지",
   "lat": 37.445948,
   "lng": 126.372722,
   "regionSlug": "incheon",
   "image": "https://tong.visitkorea.or.kr/cms/resource/78/3518478_image2_1.jpg"
  },
  {
   "cid": "2706344",
   "name": "월미바다열차",
   "category": "관광지",
   "lat": 37.4765930858898,
   "lng": 126.617089821629,
   "regionSlug": "incheon",
   "image": null
  },
  {
   "cid": "2766410",
   "name": "배미꾸미조각공원",
   "category": "관광지",
   "lat": 37.5290051860976,
   "lng": 126.406206205215,
   "regionSlug": "incheon",
   "image": "https://tong.visitkorea.or.kr/cms/resource/38/4060038_image2_1.jpg"
  },
  {
   "cid": "126542",
   "name": "김포 장릉(원종·인헌왕후) [유네스코 세계유산]",
   "category": "관광지",
   "lat": 37.6125164284,
   "lng": 126.7155881596,
   "regionSlug": "incheon",
   "image": "http://tong.visitkorea.or.kr/cms/resource/50/3361650_image2_1.jpg"
  },
  {
   "cid": "125496",
   "name": "재인폭포 (한탄강 유네스코 세계지질공원)",
   "category": "관광지",
   "lat": 38.0772227105,
   "lng": 127.1427246484,
   "regionSlug": "incheon",
   "image": "http://tong.visitkorea.or.kr/cms/resource/05/3532805_image2_1.jpg"
  },
  {
   "cid": "126130",
   "name": "달성공원",
   "category": "관광지",
   "lat": 35.8735109601,
   "lng": 128.5794806492,
   "regionSlug": "daegu",
   "image": "http://tong.visitkorea.or.kr/cms/resource/60/3565160_image2_1.jpg"
  },
  {
   "cid": "1626349",
   "name": "팔공산 케이블카",
   "category": "관광지",
   "lat": 35.9908470255,
   "lng": 128.6948699756,
   "regionSlug": "daegu",
   "image": "http://tong.visitkorea.or.kr/cms/resource/56/3572056_image2_1.jpg"
  },
  {
   "cid": "128120",
   "name": "대구수목원",
   "category": "관광지",
   "lat": 35.80264601206144,
   "lng": 128.5206303061399,
   "regionSlug": "daegu",
   "image": "https://tong.visitkorea.or.kr/cms/resource/97/4062397_image2_1.jpg"
  },
  {
   "cid": "1613870",
   "name": "선교사스윗즈주택",
   "category": "관광지",
   "lat": 35.867545067,
   "lng": 128.5848109015,
   "regionSlug": "daegu",
   "image": "http://tong.visitkorea.or.kr/cms/resource/14/3585414_image2_1.JPG"
  },
  {
   "cid": "1059329",
   "name": "녹동서원",
   "category": "관광지",
   "lat": 35.7231430831,
   "lng": 128.6461261798,
   "regionSlug": "daegu",
   "image": "http://tong.visitkorea.or.kr/cms/resource/30/3365230_image2_1.jpg"
  },
  {
   "cid": "126019",
   "name": "팔공산국립공원(갓바위지구)",
   "category": "관광지",
   "lat": 35.9622687313,
   "lng": 128.7917650205,
   "regionSlug": "daegu",
   "image": "http://tong.visitkorea.or.kr/cms/resource/99/3028999_image2_1.jpg"
  },
  {
   "cid": "126834",
   "name": "대구 불로동 고분군",
   "category": "관광지",
   "lat": 35.9145547565,
   "lng": 128.6456570076,
   "regionSlug": "daegu",
   "image": "http://tong.visitkorea.or.kr/cms/resource/37/3421437_image2_1.JPG"
  },
  {
   "cid": "126160",
   "name": "동화사(대구)",
   "category": "관광지",
   "lat": 35.9843506081,
   "lng": 128.6985587221,
   "regionSlug": "daegu",
   "image": "http://tong.visitkorea.or.kr/cms/resource/85/3576785_image2_1.JPG"
  },
  {
   "cid": "701683",
   "name": "대구시민안전테마파크",
   "category": "관광지",
   "lat": 35.9892388205,
   "lng": 128.6919647216,
   "regionSlug": "daegu",
   "image": "http://tong.visitkorea.or.kr/cms/resource/36/3541636_image2_1.jpg"
  },
  {
   "cid": "1955825",
   "name": "용연서원",
   "category": "관광지",
   "lat": 35.5476723367,
   "lng": 129.3045095305,
   "regionSlug": "ulsan",
   "image": "http://tong.visitkorea.or.kr/cms/resource/31/3341831_image2_1.jpg"
  },
  {
   "cid": "1907589",
   "name": "대전시립박물관",
   "category": "문화시설",
   "lat": 36.3369051804,
   "lng": 127.3353561691,
   "regionSlug": "daejeon",
   "image": "http://tong.visitkorea.or.kr/cms/resource/39/3031739_image2_1.JPG"
  },
  {
   "cid": "126681",
   "name": "공주 무령왕릉과 왕릉원[유네스코 세계유산]",
   "category": "관광지",
   "lat": 36.4605731945,
   "lng": 127.1125227942,
   "regionSlug": "gongju",
   "image": null
  },
  {
   "cid": "2944473",
   "name": "Fe01(에프이01)",
   "category": "문화시설",
   "lat": 35.35741599052235,
   "lng": 129.3074645231207,
   "regionSlug": "ulsan",
   "image": null
  },
  {
   "cid": "128208",
   "name": "외고산 옹기마을",
   "category": "관광지",
   "lat": 35.432879217,
   "lng": 129.2798871229,
   "regionSlug": "ulsan",
   "image": "http://tong.visitkorea.or.kr/cms/resource/17/3534617_image2_1.jpg"
  },
  {
   "cid": "125994",
   "name": "대전엑스포과학공원",
   "category": "관광지",
   "lat": 36.3759931713,
   "lng": 127.3802705364,
   "regionSlug": "daejeon",
   "image": "http://tong.visitkorea.or.kr/cms/resource/27/3486427_image2_1.jpg"
  },
  {
   "cid": "1089992",
   "name": "대전교통문화연수원",
   "category": "관광지",
   "lat": 36.3772070293,
   "lng": 127.3863644022,
   "regionSlug": "daejeon",
   "image": "http://tong.visitkorea.or.kr/cms/resource/29/3564729_image2_1.jpg"
  },
  {
   "cid": "1907688",
   "name": "대청호오백리길",
   "category": "레포츠",
   "lat": 36.3738585149176,
   "lng": 127.471940502591,
   "regionSlug": "daejeon",
   "image": "https://tong.visitkorea.or.kr/cms/resource/32/3547432_image2_1.jpg"
  },
  {
   "cid": "1720749",
   "name": "계족산 황톳길",
   "category": "레포츠",
   "lat": 36.3947042,
   "lng": 127.4538486,
   "regionSlug": "daejeon",
   "image": "https://tong.visitkorea.or.kr/cms/resource/08/2661808_image2_1.jpg"
  },
  {
   "cid": "1906578",
   "name": "천연기념물센터",
   "category": "문화시설",
   "lat": 36.3678804286,
   "lng": 127.3925224386,
   "regionSlug": "daejeon",
   "image": "http://tong.visitkorea.or.kr/cms/resource/63/3565563_image2_1.jpg"
  },
  {
   "cid": "126425",
   "name": "국립 5·18 민주묘지",
   "category": "관광지",
   "lat": 35.2325767086,
   "lng": 126.9415422558,
   "regionSlug": "gwangju",
   "image": "http://tong.visitkorea.or.kr/cms/resource/81/1587681_image2_1.jpg"
  },
  {
   "cid": "126429",
   "name": "광주 예술의 거리",
   "category": "관광지",
   "lat": 35.1496,
   "lng": 126.9189,
   "regionSlug": "gwangju",
   "image": "https://tong.visitkorea.or.kr/cms/resource/30/3515230_image2_1.jpg"
  },
  {
   "cid": "129782",
   "name": "국립광주박물관",
   "category": "문화시설",
   "lat": 35.1890008362929,
   "lng": 126.883050027496,
   "regionSlug": "gwangju",
   "image": "https://tong.visitkorea.or.kr/cms/resource/56/3351356_image2_1.jpg"
  },
  {
   "cid": "129445",
   "name": "5·18 자유공원",
   "category": "관광지",
   "lat": 35.1493919791769,
   "lng": 126.839650001578,
   "regionSlug": "gwangju",
   "image": "https://tong.visitkorea.or.kr/cms/resource/56/3510456_image2_1.jpg"
  },
  {
   "cid": "126324",
   "name": "중외공원",
   "category": "관광지",
   "lat": 35.1799,
   "lng": 126.8828,
   "regionSlug": "gwangju",
   "image": "https://tong.visitkorea.or.kr/cms/resource/55/3514755_image2_1.jpg"
  },
  {
   "cid": "2488220",
   "name": "대인시장(광주)",
   "category": "쇼핑",
   "lat": 35.1539,
   "lng": 126.917,
   "regionSlug": "gwangju",
   "image": "https://tong.visitkorea.or.kr/cms/resource/13/3515313_image2_1.jpg"
  },
  {
   "cid": "127074",
   "name": "오웬기념각",
   "category": "관광지",
   "lat": 35.1382574181867,
   "lng": 126.91587875632,
   "regionSlug": "gwangju",
   "image": null
  },
  {
   "cid": "769495",
   "name": "장생포 고래바다여행선",
   "category": "관광지",
   "lat": 35.5028149271,
   "lng": 129.3808541361,
   "regionSlug": "ulsan",
   "image": "http://tong.visitkorea.or.kr/cms/resource/95/3072895_image2_1.jpg"
  },
  {
   "cid": "127060",
   "name": "이장우가옥",
   "category": "관광지",
   "lat": 35.1406171882,
   "lng": 126.9141331006,
   "regionSlug": "gwangju",
   "image": "http://tong.visitkorea.or.kr/cms/resource/60/3368360_image2_1.jpg"
  },
  {
   "cid": "127073",
   "name": "우일선 선교사 사택",
   "category": "관광지",
   "lat": 35.138357337347,
   "lng": 126.911826359456,
   "regionSlug": "gwangju",
   "image": "https://tong.visitkorea.or.kr/cms/resource/17/2493617_image2_1.jpg"
  },
  {
   "cid": "1330521",
   "name": "충장로",
   "category": "관광지",
   "lat": 35.1465610212,
   "lng": 126.9176493076,
   "regionSlug": "gwangju",
   "image": "http://tong.visitkorea.or.kr/cms/resource/99/3351399_image2_1.jpg"
  },
  {
   "cid": "1327462",
   "name": "현대자동차 울산공장",
   "category": "관광지",
   "lat": 35.5389803669,
   "lng": 129.3839750664,
   "regionSlug": "ulsan",
   "image": "http://tong.visitkorea.or.kr/cms/resource/93/3048893_image2_1.jpg"
  },
  {
   "cid": "1393773",
   "name": "태화강 전망대",
   "category": "관광지",
   "lat": 35.5450918732,
   "lng": 129.2939660784,
   "regionSlug": "ulsan",
   "image": "http://tong.visitkorea.or.kr/cms/resource/12/3341812_image2_1.jpg"
  },
  {
   "cid": "128202",
   "name": "태화강 국가정원",
   "category": "관광지",
   "lat": 35.5487747405,
   "lng": 129.2911995498,
   "regionSlug": "ulsan",
   "image": "http://tong.visitkorea.or.kr/cms/resource/43/3422843_image2_1.png"
  },
  {
   "cid": "127644",
   "name": "울산대공원",
   "category": "관광지",
   "lat": 35.53165662544364,
   "lng": 129.2935190325105,
   "regionSlug": "ulsan",
   "image": "https://tong.visitkorea.or.kr/cms/resource/24/3072324_image2_1.jpg"
  },
  {
   "cid": "128183",
   "name": "치산서원",
   "category": "관광지",
   "lat": 35.6545394713,
   "lng": 129.2303018878,
   "regionSlug": "ulsan",
   "image": "http://tong.visitkorea.or.kr/cms/resource/14/3049114_image2_1.jpg"
  },
  {
   "cid": "126184",
   "name": "석남사(울산)",
   "category": "관광지",
   "lat": 35.6210742990174,
   "lng": 129.032371992375,
   "regionSlug": "ulsan",
   "image": "https://tong.visitkorea.or.kr/cms/resource/60/3077960_image2_1.bmp"
  },
  {
   "cid": "128184",
   "name": "울주 대곡리 반구대 암각화 [유네스코 세계유산]",
   "category": "관광지",
   "lat": 35.6039,
   "lng": 129.1784,
   "regionSlug": "ulsan",
   "image": "https://tong.visitkorea.or.kr/cms/resource/85/3507485_image2_1.jpg"
  },
  {
   "cid": "127012",
   "name": "등억온천단지",
   "category": "관광지",
   "lat": 35.5543366785,
   "lng": 129.0720851999,
   "regionSlug": "ulsan",
   "image": "http://tong.visitkorea.or.kr/cms/resource/64/3084264_image2_1.jpg"
  },
  {
   "cid": "130649",
   "name": "장생포 고래박물관",
   "category": "문화시설",
   "lat": 35.5032009945,
   "lng": 129.3808374607,
   "regionSlug": "ulsan",
   "image": "http://tong.visitkorea.or.kr/cms/resource/05/3581305_image2_1.jpg"
  },
  {
   "cid": "125981",
   "name": "운주산성",
   "category": "관광지",
   "lat": 36.681964,
   "lng": 127.241549,
   "regionSlug": "sejong",
   "image": "https://tong.visitkorea.or.kr/cms/resource/34/3505134_image2_1.jpg"
  },
  {
   "cid": "132976",
   "name": "운정식당",
   "category": "음식점",
   "lat": 36.972890045,
   "lng": 127.9221553243,
   "regionSlug": "cheongju",
   "image": null
  },
  {
   "cid": "125902",
   "name": "비암사(세종)",
   "category": "관광지",
   "lat": 36.6113554712,
   "lng": 127.1920358367,
   "regionSlug": "sejong",
   "image": "https://tong.visitkorea.or.kr/cms/resource/37/4070337_image2_1.jpg"
  },
  {
   "cid": "129465",
   "name": "수주팔봉",
   "category": "관광지",
   "lat": 36.8982703145981,
   "lng": 127.924204592306,
   "regionSlug": "cheongju",
   "image": null
  },
  {
   "cid": "128876",
   "name": "영평사",
   "category": "관광지",
   "lat": 36.47363277798934,
   "lng": 127.2278340308377,
   "regionSlug": "sejong",
   "image": "https://tong.visitkorea.or.kr/cms/resource/96/3027796_image2_1.jpg"
  },
  {
   "cid": "125875",
   "name": "고복자연공원",
   "category": "관광지",
   "lat": 36.5999630333627,
   "lng": 127.227466075211,
   "regionSlug": "sejong",
   "image": null
  },
  {
   "cid": "1999506",
   "name": "콩대박",
   "category": "음식점",
   "lat": 36.4789991366589,
   "lng": 127.344238739741,
   "regionSlug": "sejong",
   "image": null
  },
  {
   "cid": "130711",
   "name": "수원시립만석전시관",
   "category": "문화시설",
   "lat": 37.2970886646,
   "lng": 126.9994711399,
   "regionSlug": "suwon",
   "image": "http://tong.visitkorea.or.kr/cms/resource/70/3584770_image2_1.jpg"
  },
  {
   "cid": "750947",
   "name": "효원공원 월화원",
   "category": "관광지",
   "lat": 37.26491308334239,
   "lng": 127.0394457748697,
   "regionSlug": "suwon",
   "image": "https://tong.visitkorea.or.kr/cms/resource/35/3508535_image2_1.jpg"
  },
  {
   "cid": "129191",
   "name": "나혜석거리",
   "category": "관광지",
   "lat": 37.2640208974,
   "lng": 127.0344383354,
   "regionSlug": "suwon",
   "image": "http://tong.visitkorea.or.kr/cms/resource/99/3400899_image2_1.JPG"
  },
  {
   "cid": "2605236",
   "name": "의암호스카이워크",
   "category": "관광지",
   "lat": 37.8471622126,
   "lng": 127.6799656772,
   "regionSlug": "chuncheon",
   "image": "http://tong.visitkorea.or.kr/cms/resource/13/2748613_image2_1.jpg"
  },
  {
   "cid": "125555",
   "name": "수원 화성 [유네스코 세계유산]",
   "category": "관광지",
   "lat": 37.2872981922007,
   "lng": 127.012098314295,
   "regionSlug": "suwon",
   "image": null
  },
  {
   "cid": "1600871",
   "name": "춘천문학공원",
   "category": "관광지",
   "lat": 37.9009396034,
   "lng": 127.6968514363,
   "regionSlug": "chuncheon",
   "image": "http://tong.visitkorea.or.kr/cms/resource/45/3351545_image2_1.jpg"
  },
  {
   "cid": "2710586",
   "name": "공지천유원지",
   "category": "관광지",
   "lat": 37.8746901179,
   "lng": 127.7096010535,
   "regionSlug": "chuncheon",
   "image": "http://tong.visitkorea.or.kr/cms/resource/52/2739752_image2_1.jpg"
  },
  {
   "cid": "130472",
   "name": "춘천 애니메이션박물관·토이로봇관",
   "category": "문화시설",
   "lat": 37.8930313558032,
   "lng": 127.69186731892,
   "regionSlug": "chuncheon",
   "image": "https://tong.visitkorea.or.kr/cms/resource/05/2743005_image2_1.jpg"
  },
  {
   "cid": "127963",
   "name": "충주자연호텔",
   "category": "숙박",
   "lat": 36.8877726727,
   "lng": 127.9558547319,
   "regionSlug": "cheongju",
   "image": "http://tong.visitkorea.or.kr/cms/resource/68/2595268_image2_1.bmp"
  },
  {
   "cid": "127433",
   "name": "강원특별자치도립화목원",
   "category": "관광지",
   "lat": 37.9226444575207,
   "lng": 127.725155972564,
   "regionSlug": "chuncheon",
   "image": "https://tong.visitkorea.or.kr/cms/resource/60/3331860_image2_1.jpg"
  },
  {
   "cid": "135931",
   "name": "둥근닭갈비 막국수 닭보쌈",
   "category": "음식점",
   "lat": 37.9223903446,
   "lng": 127.721492999,
   "regionSlug": "chuncheon",
   "image": "http://tong.visitkorea.or.kr/cms/resource/85/3046185_image2_1.jpg"
  },
  {
   "cid": "264434",
   "name": "춘천명동거리",
   "category": "관광지",
   "lat": 37.8799919516675,
   "lng": 127.727528121532,
   "regionSlug": "chuncheon",
   "image": "https://tong.visitkorea.or.kr/cms/resource/11/3538111_image2_1.jpg"
  },
  {
   "cid": "1938398",
   "name": "수암골 벽화마을",
   "category": "관광지",
   "lat": 36.6472835628,
   "lng": 127.4943001085,
   "regionSlug": "cheongju",
   "image": "http://tong.visitkorea.or.kr/cms/resource/98/3353798_image2_1.jpg"
  },
  {
   "cid": "1938427",
   "name": "충북문화관",
   "category": "문화시설",
   "lat": 36.63738,
   "lng": 127.495507,
   "regionSlug": "cheongju",
   "image": "https://tong.visitkorea.or.kr/cms/resource/17/3486317_image2_1.jpg"
  },
  {
   "cid": "126198",
   "name": "통영 세병관",
   "category": "관광지",
   "lat": 34.8477429972,
   "lng": 128.4231637515,
   "regionSlug": "tongyeong",
   "image": "http://tong.visitkorea.or.kr/cms/resource/66/3580566_image2_1.jpg"
  },
  {
   "cid": "2675046",
   "name": "통영생태숲",
   "category": "관광지",
   "lat": 34.8373,
   "lng": 128.4059,
   "regionSlug": "tongyeong",
   "image": null
  },
  {
   "cid": "2605111",
   "name": "서피랑 마을",
   "category": "관광지",
   "lat": 34.8438433585,
   "lng": 128.4189892179,
   "regionSlug": "tongyeong",
   "image": "http://tong.visitkorea.or.kr/cms/resource/53/3355053_image2_1.jpg"
  },
  {
   "cid": "2679716",
   "name": "디피랑(DPIRANG)",
   "category": "관광지",
   "lat": 34.8420612858,
   "lng": 128.4284783188,
   "regionSlug": "tongyeong",
   "image": "https://tong.visitkorea.or.kr/cms/resource/33/3573233_image2_1.jpg"
  },
  {
   "cid": "127105",
   "name": "한산도",
   "category": "관광지",
   "lat": 34.7783,
   "lng": 128.4868,
   "regionSlug": "tongyeong",
   "image": "https://tong.visitkorea.or.kr/cms/resource/51/3513751_image2_1.jpg"
  },
  {
   "cid": "231923",
   "name": "통영 삼도수군통제영",
   "category": "관광지",
   "lat": 34.8477207784,
   "lng": 128.4232443009,
   "regionSlug": "tongyeong",
   "image": "http://tong.visitkorea.or.kr/cms/resource/48/2987148_image2_1.jpg"
  },
  {
   "cid": "575784",
   "name": "소매물도",
   "category": "관광지",
   "lat": 34.6271,
   "lng": 128.5506,
   "regionSlug": "tongyeong",
   "image": "https://tong.visitkorea.or.kr/cms/resource/14/3495214_image2_1.jpg"
  },
  {
   "cid": "133281",
   "name": "뚱보할매김밥",
   "category": "음식점",
   "lat": 34.8438934368,
   "lng": 128.4236832526,
   "regionSlug": "tongyeong",
   "image": null
  },
  {
   "cid": "533874",
   "name": "통영케이블카",
   "category": "관광지",
   "lat": 34.8266120596,
   "lng": 128.4250363662,
   "regionSlug": "tongyeong",
   "image": null
  },
  {
   "cid": "753306",
   "name": "동피랑마을",
   "category": "관광지",
   "lat": 34.8453461228,
   "lng": 128.4276467571,
   "regionSlug": "tongyeong",
   "image": null
  },
  {
   "cid": "1180879",
   "name": "안동 하회마을 겸암정사",
   "category": "관광지",
   "lat": 36.5427419723,
   "lng": 128.5132759373,
   "regionSlug": "andong",
   "image": "http://tong.visitkorea.or.kr/cms/resource/67/3585467_image2_1.jpg"
  },
  {
   "cid": "894027",
   "name": "안동 하회마을 [유네스코 세계유산]",
   "category": "관광지",
   "lat": 36.5506148855,
   "lng": 128.5282935032,
   "regionSlug": "andong",
   "image": "https://tong.visitkorea.or.kr/cms/resource/62/4059762_image2_1.jpg"
  },
  {
   "cid": "126227",
   "name": "병산서원 [유네스코 세계유산]",
   "category": "관광지",
   "lat": 36.5402566465,
   "lng": 128.5528129272,
   "regionSlug": "andong",
   "image": "https://tong.visitkorea.or.kr/cms/resource/11/4064711_image2_1.JPG"
  },
  {
   "cid": "132282",
   "name": "안동구시장(2, 7일)",
   "category": "쇼핑",
   "lat": 36.56551501706651,
   "lng": 128.7283482810442,
   "regionSlug": "andong",
   "image": null
  },
  {
   "cid": "128560",
   "name": "안동 임청각",
   "category": "관광지",
   "lat": 36.56513212265581,
   "lng": 128.7450037386024,
   "regionSlug": "andong",
   "image": "https://tong.visitkorea.or.kr/cms/resource/48/3506348_image2_1.jpg"
  },
  {
   "cid": "128762",
   "name": "안동 법흥사지 칠층전탑",
   "category": "관광지",
   "lat": 36.5660547986,
   "lng": 128.7464462156,
   "regionSlug": "andong",
   "image": "http://tong.visitkorea.or.kr/cms/resource/88/3536088_image2_1.jpg"
  },
  {
   "cid": "337501",
   "name": "연미사(안동)",
   "category": "관광지",
   "lat": 36.6063133329,
   "lng": 128.7061708478,
   "regionSlug": "andong",
   "image": "http://tong.visitkorea.or.kr/cms/resource/52/3047952_image2_1.JPG"
  },
  {
   "cid": "126158",
   "name": "봉정사 [유네스코 세계유산]",
   "category": "관광지",
   "lat": 36.6489215375,
   "lng": 128.6627873578,
   "regionSlug": "andong",
   "image": "http://tong.visitkorea.or.kr/cms/resource/96/3585196_image2_1.jpg"
  },
  {
   "cid": "479906",
   "name": "정혜사(순천)",
   "category": "관광지",
   "lat": 35.0620196437,
   "lng": 127.5143127353,
   "regionSlug": "suncheon",
   "image": "http://tong.visitkorea.or.kr/cms/resource/64/3016564_image2_1.jpg"
  },
  {
   "cid": "126267",
   "name": "선암사계곡",
   "category": "관광지",
   "lat": 34.9923189536,
   "lng": 127.3414158254,
   "regionSlug": "suncheon",
   "image": "http://tong.visitkorea.or.kr/cms/resource/71/3460071_image2_1.jpg"
  },
  {
   "cid": "126369",
   "name": "선암사 [유네스코 세계유산]",
   "category": "관광지",
   "lat": 34.9965396644,
   "lng": 127.3311181522,
   "regionSlug": "suncheon",
   "image": "https://tong.visitkorea.or.kr/cms/resource/62/4054662_image2_1.jpg"
  },
  {
   "cid": "662234",
   "name": "순천전통야생차체험관",
   "category": "관광지",
   "lat": 34.994895465584,
   "lng": 127.334076248883,
   "regionSlug": "suncheon",
   "image": "https://tong.visitkorea.or.kr/cms/resource/08/3499008_image2_1.jpg"
  },
  {
   "cid": "127489",
   "name": "순천 주암호",
   "category": "관광지",
   "lat": 34.94939992887889,
   "lng": 127.4147755637339,
   "regionSlug": "suncheon",
   "image": "https://tong.visitkorea.or.kr/cms/resource/49/2716549_image2_1.jpg"
  },
  {
   "cid": "127869",
   "name": "대한다원",
   "category": "관광지",
   "lat": 34.7156546356042,
   "lng": 127.078796201296,
   "regionSlug": "suncheon",
   "image": "https://tong.visitkorea.or.kr/cms/resource/20/4061220_image2_1.jpg"
  },
  {
   "cid": "126611",
   "name": "송재 서재필선생 생가와 기념공원",
   "category": "관광지",
   "lat": 34.9590563171,
   "lng": 127.195668377,
   "regionSlug": "suncheon",
   "image": "http://tong.visitkorea.or.kr/cms/resource/31/3551531_image2_1.jpg"
  },
  {
   "cid": "126317",
   "name": "순천 고인돌 공원",
   "category": "관광지",
   "lat": 34.9788795846,
   "lng": 127.2249291925,
   "regionSlug": "suncheon",
   "image": "http://tong.visitkorea.or.kr/cms/resource/73/3346673_image2_1.JPG"
  },
  {
   "cid": "126371",
   "name": "송광사(순천)",
   "category": "관광지",
   "lat": 35.00237489945013,
   "lng": 127.2748324990844,
   "regionSlug": "suncheon",
   "image": "https://tong.visitkorea.or.kr/cms/resource/93/3577593_image2_1.jpg"
  },
  {
   "cid": "127931",
   "name": "순천 낙안읍성",
   "category": "관광지",
   "lat": 34.90606162058277,
   "lng": 127.3417276357572,
   "regionSlug": "suncheon",
   "image": "https://tong.visitkorea.or.kr/cms/resource/51/3497851_image2_1.jpg"
  },
  {
   "cid": "228886",
   "name": "용산전망대",
   "category": "관광지",
   "lat": 34.8730493045,
   "lng": 127.5193226643,
   "regionSlug": "suncheon",
   "image": "http://tong.visitkorea.or.kr/cms/resource/17/3590517_image2_1.jpg"
  },
  {
   "cid": "407254",
   "name": "국립 낙안민속자연휴양림",
   "category": "관광지",
   "lat": 34.9177244115266,
   "lng": 127.355984487151,
   "regionSlug": "suncheon",
   "image": null
  },
  {
   "cid": "1597942",
   "name": "월명공원",
   "category": "관광지",
   "lat": 35.9891450329,
   "lng": 126.7029275021,
   "regionSlug": "gunsan",
   "image": null
  },
  {
   "cid": "913869",
   "name": "군산 신흥동 일본식가옥(히로쓰 가옥)",
   "category": "관광지",
   "lat": 35.9863009684,
   "lng": 126.7061578421,
   "regionSlug": "gunsan",
   "image": "http://tong.visitkorea.or.kr/cms/resource/70/3351370_image2_1.jpg"
  },
  {
   "cid": "129509",
   "name": "동국사(군산)",
   "category": "관광지",
   "lat": 35.9829485974,
   "lng": 126.7075855787,
   "regionSlug": "gunsan",
   "image": "http://tong.visitkorea.or.kr/cms/resource/08/3308508_image2_1.jpg"
  },
  {
   "cid": "916815",
   "name": "군산 개정면 구 일본인농장 창고",
   "category": "관광지",
   "lat": 35.9591972899,
   "lng": 126.7973420585,
   "regionSlug": "gunsan",
   "image": "http://tong.visitkorea.or.kr/cms/resource/85/3055485_image2_1.jpg"
  },
  {
   "cid": "917162",
   "name": "군산 임피역사",
   "category": "관광지",
   "lat": 35.9543184392,
   "lng": 126.8642056557,
   "regionSlug": "gunsan",
   "image": "http://tong.visitkorea.or.kr/cms/resource/84/3556484_image2_1.jpg"
  },
  {
   "cid": "129382",
   "name": "은파 물빛다리",
   "category": "관광지",
   "lat": 35.9507909205,
   "lng": 126.6937182056,
   "regionSlug": "gunsan",
   "image": "http://tong.visitkorea.or.kr/cms/resource/13/3358113_image2_1.JPG"
  },
  {
   "cid": "126392",
   "name": "옥구향교",
   "category": "관광지",
   "lat": 35.930617692862,
   "lng": 126.70718665893,
   "regionSlug": "gunsan",
   "image": "https://tong.visitkorea.or.kr/cms/resource/29/3505929_image2_1.jpg"
  },
  {
   "cid": "2708149",
   "name": "옛 군산세관",
   "category": "관광지",
   "lat": 35.9915087952,
   "lng": 126.7113016917,
   "regionSlug": "gunsan",
   "image": "http://tong.visitkorea.or.kr/cms/resource/19/3530419_image2_1.jpg"
  },
  {
   "cid": "923263",
   "name": "진포해양테마공원",
   "category": "관광지",
   "lat": 35.9892997236059,
   "lng": 126.717450815797,
   "regionSlug": "gunsan",
   "image": "https://tong.visitkorea.or.kr/cms/resource/53/2649953_image2_1.jpg"
  },
  {
   "cid": "130332",
   "name": "채만식 문학관",
   "category": "문화시설",
   "lat": 36.0085981064483,
   "lng": 126.757885329316,
   "regionSlug": "gunsan",
   "image": null
  },
  {
   "cid": "914607",
   "name": "이영춘가옥",
   "category": "관광지",
   "lat": 35.9710064154,
   "lng": 126.7601173017,
   "regionSlug": "gunsan",
   "image": "http://tong.visitkorea.or.kr/cms/resource/14/2658214_image2_1.jpg"
  },
  {
   "cid": "127131",
   "name": "호미곶 해맞이광장",
   "category": "관광지",
   "lat": 36.076781,
   "lng": 129.56797,
   "regionSlug": "pohang",
   "image": "https://tong.visitkorea.or.kr/cms/resource/52/4056752_image2_1.jpg"
  },
  {
   "cid": "126172",
   "name": "오어사(포항)",
   "category": "관광지",
   "lat": 35.9262667656,
   "lng": 129.368781652,
   "regionSlug": "pohang",
   "image": "https://tong.visitkorea.or.kr/cms/resource/62/4060862_image2_1.png"
  },
  {
   "cid": "2383578",
   "name": "포항함체험관",
   "category": "관광지",
   "lat": 36.0412735319,
   "lng": 129.3731783187,
   "regionSlug": "pohang",
   "image": "http://tong.visitkorea.or.kr/cms/resource/54/3586454_image2_1.jpg"
  },
  {
   "cid": "132366",
   "name": "죽도시장",
   "category": "쇼핑",
   "lat": 36.03641909395056,
   "lng": 129.3681412859447,
   "regionSlug": "pohang",
   "image": "https://tong.visitkorea.or.kr/cms/resource/86/2678386_image2_1.jpg"
  },
  {
   "cid": "2383570",
   "name": "포항운하",
   "category": "관광지",
   "lat": 36.029094,
   "lng": 129.373672,
   "regionSlug": "pohang",
   "image": "https://tong.visitkorea.or.kr/cms/resource/55/3493455_image2_1.jpg"
  },
  {
   "cid": "2472690",
   "name": "Park1538 포스코역사박물관",
   "category": "문화시설",
   "lat": 35.9970593542,
   "lng": 129.3872116995,
   "regionSlug": "pohang",
   "image": "http://tong.visitkorea.or.kr/cms/resource/65/3589265_image2_1.jpg"
  },
  {
   "cid": "125817",
   "name": "계룡산국립공원",
   "category": "관광지",
   "lat": 36.3568257226531,
   "lng": 127.232444467616,
   "regionSlug": "gongju",
   "image": "https://tong.visitkorea.or.kr/cms/resource/73/3509273_image2_1.jpg"
  },
  {
   "cid": "2007483",
   "name": "계룡산글램핑",
   "category": "레포츠",
   "lat": 36.356065429,
   "lng": 127.2534796456,
   "regionSlug": "gongju",
   "image": "http://tong.visitkorea.or.kr/cms/resource/60/3396460_image2_1.JPG"
  },
  {
   "cid": "129558",
   "name": "동학사계곡",
   "category": "관광지",
   "lat": 36.3529457673,
   "lng": 127.2209159783,
   "regionSlug": "gongju",
   "image": "http://tong.visitkorea.or.kr/cms/resource/14/3338114_image2_1.jpg"
  },
  {
   "cid": "126725",
   "name": "계룡산 도자예술촌",
   "category": "관광지",
   "lat": 36.39000604859124,
   "lng": 127.2152329818195,
   "regionSlug": "gongju",
   "image": "https://tong.visitkorea.or.kr/cms/resource/79/3534879_image2_1.jpg"
  },
  {
   "cid": "125893",
   "name": "동학사(공주)",
   "category": "관광지",
   "lat": 36.3532287122659,
   "lng": 127.22004019899,
   "regionSlug": "gongju",
   "image": "https://tong.visitkorea.or.kr/cms/resource/71/3590671_image2_1.jpg"
  },
  {
   "cid": "133943",
   "name": "사비성 (동학산장호텔 한식당)",
   "category": "음식점",
   "lat": 36.3595814233,
   "lng": 127.2381753654,
   "regionSlug": "gongju",
   "image": "http://tong.visitkorea.or.kr/cms/resource/10/3060510_image2_1.JPG"
  },
  {
   "cid": "125858",
   "name": "유성온천지구",
   "category": "관광지",
   "lat": 36.355344905,
   "lng": 127.3448131576,
   "regionSlug": "gongju",
   "image": "http://tong.visitkorea.or.kr/cms/resource/42/3035142_image2_1.JPG"
  },
  {
   "cid": "130560",
   "name": "한국자연사박물관",
   "category": "문화시설",
   "lat": 36.3664029859,
   "lng": 127.245055121,
   "regionSlug": "gongju",
   "image": "http://tong.visitkorea.or.kr/cms/resource/32/3390232_image2_1.JPG"
  },
  {
   "cid": "1184872",
   "name": "석장리박물관",
   "category": "문화시설",
   "lat": 36.44748300637401,
   "lng": 127.1899017463626,
   "regionSlug": "gongju",
   "image": "https://tong.visitkorea.or.kr/cms/resource/69/3390269_image2_1.JPG"
  },
  {
   "cid": "133391",
   "name": "옛날어씨네집",
   "category": "음식점",
   "lat": 36.4342723688,
   "lng": 127.209825888,
   "regionSlug": "gongju",
   "image": "http://tong.visitkorea.or.kr/cms/resource/46/1876646_image2_1.jpg"
  },
  {
   "cid": "125949",
   "name": "공주 공산성 [유네스코 세계유산]",
   "category": "관광지",
   "lat": 36.4629981682,
   "lng": 127.1268075582,
   "regionSlug": "gongju",
   "image": "http://tong.visitkorea.or.kr/cms/resource/75/2678675_image2_1.jpg"
  },
  {
   "cid": "129787",
   "name": "국립공주박물관",
   "category": "문화시설",
   "lat": 36.4665696863,
   "lng": 127.1100589651,
   "regionSlug": "gongju",
   "image": "http://tong.visitkorea.or.kr/cms/resource/33/3534933_image2_1.jpg"
  }
 ],
 "courses": [
  {
   "cid": "2389114",
   "regionSlug": "jeju",
   "title": "동광리농촌체험휴양마을 체험 코스 [웰촌]",
   "summary": null,
   "durationDays": 1,
   "estCost": null,
   "cover": "http://tong.visitkorea.or.kr/cms/resource/59/650459_image2_1.jpg",
   "items": [
    {
     "dayNo": 1,
     "sortOrder": 1,
     "spotCid": "125445",
     "stayMinutes": null,
     "transportToNext": null,
     "transportMinutes": null
    },
    {
     "dayNo": 1,
     "sortOrder": 2,
     "spotCid": "2660802",
     "stayMinutes": null,
     "transportToNext": null,
     "transportMinutes": null
    },
    {
     "dayNo": 1,
     "sortOrder": 3,
     "spotCid": "2390111",
     "stayMinutes": null,
     "transportToNext": null,
     "transportMinutes": null
    },
    {
     "dayNo": 1,
     "sortOrder": 4,
     "spotCid": "130512",
     "stayMinutes": null,
     "transportToNext": null,
     "transportMinutes": null
    }
   ]
  },
  {
   "cid": "2381552",
   "regionSlug": "jeju",
   "title": "바다와 풀밭이 맞닿은 푸른 세상 속으로, 제주 온평~표선 올레",
   "summary": null,
   "durationDays": 1,
   "estCost": null,
   "cover": "http://tong.visitkorea.or.kr/cms/resource/05/1618205_image2_1.jpg",
   "items": [
    {
     "dayNo": 1,
     "sortOrder": 1,
     "spotCid": "1839491",
     "stayMinutes": null,
     "transportToNext": null,
     "transportMinutes": null
    },
    {
     "dayNo": 1,
     "sortOrder": 2,
     "spotCid": "130723",
     "stayMinutes": null,
     "transportToNext": null,
     "transportMinutes": null
    },
    {
     "dayNo": 1,
     "sortOrder": 3,
     "spotCid": "635701",
     "stayMinutes": null,
     "transportToNext": null,
     "transportMinutes": null
    },
    {
     "dayNo": 1,
     "sortOrder": 4,
     "spotCid": "128794",
     "stayMinutes": null,
     "transportToNext": null,
     "transportMinutes": null
    }
   ]
  },
  {
   "cid": "2372031",
   "regionSlug": "jeju",
   "title": "제주의 특별한 카페찾아가기",
   "summary": null,
   "durationDays": 1,
   "estCost": null,
   "cover": "http://tong.visitkorea.or.kr/cms/resource/51/2362751_image2_1.jpg",
   "items": [
    {
     "dayNo": 1,
     "sortOrder": 1,
     "spotCid": "2363045",
     "stayMinutes": null,
     "transportToNext": null,
     "transportMinutes": null
    },
    {
     "dayNo": 1,
     "sortOrder": 2,
     "spotCid": "128345",
     "stayMinutes": null,
     "transportToNext": null,
     "transportMinutes": null
    },
    {
     "dayNo": 1,
     "sortOrder": 3,
     "spotCid": "130474",
     "stayMinutes": null,
     "transportToNext": null,
     "transportMinutes": null
    }
   ]
  },
  {
   "cid": "2610457",
   "regionSlug": "busan",
   "title": "부산의 가을은 영화로 들썩인다",
   "summary": null,
   "durationDays": 1,
   "estCost": null,
   "cover": "http://tong.visitkorea.or.kr/cms/resource/83/2364283_image2_1.jpg",
   "items": [
    {
     "dayNo": 1,
     "sortOrder": 1,
     "spotCid": "132190",
     "stayMinutes": null,
     "transportToNext": null,
     "transportMinutes": null
    },
    {
     "dayNo": 1,
     "sortOrder": 2,
     "spotCid": "126848",
     "stayMinutes": null,
     "transportToNext": null,
     "transportMinutes": null
    },
    {
     "dayNo": 1,
     "sortOrder": 3,
     "spotCid": "127488",
     "stayMinutes": null,
     "transportToNext": null,
     "transportMinutes": null
    },
    {
     "dayNo": 1,
     "sortOrder": 4,
     "spotCid": "126081",
     "stayMinutes": null,
     "transportToNext": null,
     "transportMinutes": null
    },
    {
     "dayNo": 1,
     "sortOrder": 5,
     "spotCid": "229912",
     "stayMinutes": null,
     "transportToNext": null,
     "transportMinutes": null
    }
   ]
  },
  {
   "cid": "2605959",
   "regionSlug": "busan",
   "title": "열정, 젊음, 시원함이 있는 밤바다 여행",
   "summary": null,
   "durationDays": 1,
   "estCost": null,
   "cover": "http://tong.visitkorea.or.kr/cms/resource/83/2606083_image2_1.jpg",
   "items": [
    {
     "dayNo": 1,
     "sortOrder": 1,
     "spotCid": "127925",
     "stayMinutes": null,
     "transportToNext": null,
     "transportMinutes": null
    },
    {
     "dayNo": 1,
     "sortOrder": 2,
     "spotCid": "128810",
     "stayMinutes": null,
     "transportToNext": null,
     "transportMinutes": null
    },
    {
     "dayNo": 1,
     "sortOrder": 3,
     "spotCid": "126081",
     "stayMinutes": null,
     "transportToNext": null,
     "transportMinutes": null
    },
    {
     "dayNo": 1,
     "sortOrder": 4,
     "spotCid": "126674",
     "stayMinutes": null,
     "transportToNext": null,
     "transportMinutes": null
    }
   ]
  },
  {
   "cid": "2381544",
   "regionSlug": "busan",
   "title": "영화 마니아를 위한 로맨틱 여행",
   "summary": null,
   "durationDays": 1,
   "estCost": null,
   "cover": "http://tong.visitkorea.or.kr/cms/resource/45/2368445_image2_1.jpg",
   "items": [
    {
     "dayNo": 1,
     "sortOrder": 1,
     "spotCid": "2381553",
     "stayMinutes": null,
     "transportToNext": null,
     "transportMinutes": null
    },
    {
     "dayNo": 1,
     "sortOrder": 2,
     "spotCid": "129602",
     "stayMinutes": null,
     "transportToNext": null,
     "transportMinutes": null
    },
    {
     "dayNo": 1,
     "sortOrder": 3,
     "spotCid": "2381567",
     "stayMinutes": null,
     "transportToNext": null,
     "transportMinutes": null
    },
    {
     "dayNo": 1,
     "sortOrder": 4,
     "spotCid": "229912",
     "stayMinutes": null,
     "transportToNext": null,
     "transportMinutes": null
    }
   ]
  },
  {
   "cid": "2804867",
   "regionSlug": "gyeongju",
   "title": "해파랑길(경주, 포항, 영덕 구간)",
   "summary": null,
   "durationDays": 1,
   "estCost": null,
   "cover": "http://tong.visitkorea.or.kr/cms/resource/56/1613356_image2_1.jpg",
   "items": [
    {
     "dayNo": 1,
     "sortOrder": 1,
     "spotCid": "126218",
     "stayMinutes": null,
     "transportToNext": null,
     "transportMinutes": null
    },
    {
     "dayNo": 1,
     "sortOrder": 2,
     "spotCid": "128637",
     "stayMinutes": null,
     "transportToNext": null,
     "transportMinutes": null
    },
    {
     "dayNo": 1,
     "sortOrder": 3,
     "spotCid": "128651",
     "stayMinutes": null,
     "transportToNext": null,
     "transportMinutes": null
    },
    {
     "dayNo": 1,
     "sortOrder": 4,
     "spotCid": "2732165",
     "stayMinutes": null,
     "transportToNext": null,
     "transportMinutes": null
    },
    {
     "dayNo": 1,
     "sortOrder": 5,
     "spotCid": "127217",
     "stayMinutes": null,
     "transportToNext": null,
     "transportMinutes": null
    },
    {
     "dayNo": 1,
     "sortOrder": 6,
     "spotCid": "2610499",
     "stayMinutes": null,
     "transportToNext": null,
     "transportMinutes": null
    },
    {
     "dayNo": 1,
     "sortOrder": 7,
     "spotCid": "127714",
     "stayMinutes": null,
     "transportToNext": null,
     "transportMinutes": null
    }
   ]
  },
  {
   "cid": "2006523",
   "regionSlug": "gyeongju",
   "title": "눈으로 보고 마음으로 느끼는 경주 미술·박물관 여행",
   "summary": null,
   "durationDays": 1,
   "estCost": null,
   "cover": "http://tong.visitkorea.or.kr/cms/resource/67/1615367_image2_1.jpg",
   "items": [
    {
     "dayNo": 1,
     "sortOrder": 1,
     "spotCid": "129778",
     "stayMinutes": null,
     "transportToNext": null,
     "transportMinutes": null
    },
    {
     "dayNo": 1,
     "sortOrder": 2,
     "spotCid": "130858",
     "stayMinutes": null,
     "transportToNext": null,
     "transportMinutes": null
    }
   ]
  },
  {
   "cid": "1854200",
   "regionSlug": "gyeongju",
   "title": "천년 전 신라인들을 만나다",
   "summary": null,
   "durationDays": 1,
   "estCost": null,
   "cover": "http://tong.visitkorea.or.kr/cms/resource/49/202649_image2_1.jpg",
   "items": [
    {
     "dayNo": 1,
     "sortOrder": 1,
     "spotCid": "128117",
     "stayMinutes": null,
     "transportToNext": null,
     "transportMinutes": null
    },
    {
     "dayNo": 1,
     "sortOrder": 2,
     "spotCid": "126204",
     "stayMinutes": null,
     "transportToNext": null,
     "transportMinutes": null
    },
    {
     "dayNo": 1,
     "sortOrder": 3,
     "spotCid": "128116",
     "stayMinutes": null,
     "transportToNext": null,
     "transportMinutes": null
    },
    {
     "dayNo": 1,
     "sortOrder": 4,
     "spotCid": "126207",
     "stayMinutes": null,
     "transportToNext": null,
     "transportMinutes": null
    },
    {
     "dayNo": 1,
     "sortOrder": 5,
     "spotCid": "1621391",
     "stayMinutes": null,
     "transportToNext": null,
     "transportMinutes": null
    },
    {
     "dayNo": 1,
     "sortOrder": 6,
     "spotCid": "134159",
     "stayMinutes": null,
     "transportToNext": null,
     "transportMinutes": null
    },
    {
     "dayNo": 1,
     "sortOrder": 7,
     "spotCid": "126214",
     "stayMinutes": null,
     "transportToNext": null,
     "transportMinutes": null
    },
    {
     "dayNo": 1,
     "sortOrder": 8,
     "spotCid": "126775",
     "stayMinutes": null,
     "transportToNext": null,
     "transportMinutes": null
    },
    {
     "dayNo": 1,
     "sortOrder": 9,
     "spotCid": "127985",
     "stayMinutes": null,
     "transportToNext": null,
     "transportMinutes": null
    },
    {
     "dayNo": 1,
     "sortOrder": 10,
     "spotCid": "317503",
     "stayMinutes": null,
     "transportToNext": null,
     "transportMinutes": null
    }
   ]
  },
  {
   "cid": "2804863",
   "regionSlug": "yeosu",
   "title": "남파랑길(여수 구간)",
   "summary": null,
   "durationDays": 1,
   "estCost": null,
   "cover": "http://tong.visitkorea.or.kr/cms/resource/49/2617849_image2_1.jpg",
   "items": [
    {
     "dayNo": 1,
     "sortOrder": 1,
     "spotCid": "128017",
     "stayMinutes": null,
     "transportToNext": null,
     "transportMinutes": null
    },
    {
     "dayNo": 1,
     "sortOrder": 2,
     "spotCid": "126782",
     "stayMinutes": null,
     "transportToNext": null,
     "transportMinutes": null
    },
    {
     "dayNo": 1,
     "sortOrder": 3,
     "spotCid": "2777911",
     "stayMinutes": null,
     "transportToNext": null,
     "transportMinutes": null
    },
    {
     "dayNo": 1,
     "sortOrder": 4,
     "spotCid": "128025",
     "stayMinutes": null,
     "transportToNext": null,
     "transportMinutes": null
    },
    {
     "dayNo": 1,
     "sortOrder": 5,
     "spotCid": "2514658",
     "stayMinutes": null,
     "transportToNext": null,
     "transportMinutes": null
    },
    {
     "dayNo": 1,
     "sortOrder": 6,
     "spotCid": "2612869",
     "stayMinutes": null,
     "transportToNext": null,
     "transportMinutes": null
    },
    {
     "dayNo": 1,
     "sortOrder": 7,
     "spotCid": "2647864",
     "stayMinutes": null,
     "transportToNext": null,
     "transportMinutes": null
    },
    {
     "dayNo": 1,
     "sortOrder": 8,
     "spotCid": "2496315",
     "stayMinutes": null,
     "transportToNext": null,
     "transportMinutes": null
    },
    {
     "dayNo": 1,
     "sortOrder": 9,
     "spotCid": "2752382",
     "stayMinutes": null,
     "transportToNext": null,
     "transportMinutes": null
    }
   ]
  },
  {
   "cid": "1874773",
   "regionSlug": "yeosu",
   "title": "배타고 드라이브하고 여수를 즐긴다!",
   "summary": null,
   "durationDays": 1,
   "estCost": null,
   "cover": null,
   "items": [
    {
     "dayNo": 1,
     "sortOrder": 1,
     "spotCid": "128025",
     "stayMinutes": null,
     "transportToNext": null,
     "transportMinutes": null
    },
    {
     "dayNo": 1,
     "sortOrder": 2,
     "spotCid": "127715",
     "stayMinutes": null,
     "transportToNext": null,
     "transportMinutes": null
    },
    {
     "dayNo": 1,
     "sortOrder": 3,
     "spotCid": "129414",
     "stayMinutes": null,
     "transportToNext": null,
     "transportMinutes": null
    },
    {
     "dayNo": 1,
     "sortOrder": 4,
     "spotCid": "126280",
     "stayMinutes": null,
     "transportToNext": null,
     "transportMinutes": null
    },
    {
     "dayNo": 1,
     "sortOrder": 5,
     "spotCid": "129281",
     "stayMinutes": null,
     "transportToNext": null,
     "transportMinutes": null
    }
   ]
  },
  {
   "cid": "2381375",
   "regionSlug": "yeosu",
   "title": "섬과 섬을 넘나드는 바다 여행",
   "summary": null,
   "durationDays": 1,
   "estCost": null,
   "cover": "http://tong.visitkorea.or.kr/cms/resource/62/1720562_image2_1.jpg",
   "items": [
    {
     "dayNo": 1,
     "sortOrder": 1,
     "spotCid": "126968",
     "stayMinutes": null,
     "transportToNext": null,
     "transportMinutes": null
    },
    {
     "dayNo": 1,
     "sortOrder": 2,
     "spotCid": "2381140",
     "stayMinutes": null,
     "transportToNext": null,
     "transportMinutes": null
    },
    {
     "dayNo": 1,
     "sortOrder": 3,
     "spotCid": "129149",
     "stayMinutes": null,
     "transportToNext": null,
     "transportMinutes": null
    }
   ]
  },
  {
   "cid": "2390089",
   "regionSlug": "gangneung",
   "title": "강릉의 대표 유적지 오죽헌을 걷다.",
   "summary": null,
   "durationDays": 1,
   "estCost": null,
   "cover": "http://tong.visitkorea.or.kr/cms/resource/06/2363006_image2_1.jpg",
   "items": [
    {
     "dayNo": 1,
     "sortOrder": 1,
     "spotCid": "129784",
     "stayMinutes": null,
     "transportToNext": null,
     "transportMinutes": null
    },
    {
     "dayNo": 1,
     "sortOrder": 2,
     "spotCid": "1318353",
     "stayMinutes": null,
     "transportToNext": null,
     "transportMinutes": null
    },
    {
     "dayNo": 1,
     "sortOrder": 3,
     "spotCid": "129337",
     "stayMinutes": null,
     "transportToNext": null,
     "transportMinutes": null
    }
   ]
  },
  {
   "cid": "1852918",
   "regionSlug": "gangneung",
   "title": "동해바다를 굽어보는 강릉 7번 국도 여행",
   "summary": null,
   "durationDays": 1,
   "estCost": null,
   "cover": "http://tong.visitkorea.or.kr/cms/resource/31/1581131_image2_1.jpg",
   "items": [
    {
     "dayNo": 1,
     "sortOrder": 1,
     "spotCid": "126898",
     "stayMinutes": null,
     "transportToNext": null,
     "transportMinutes": null
    },
    {
     "dayNo": 1,
     "sortOrder": 2,
     "spotCid": "125766",
     "stayMinutes": null,
     "transportToNext": null,
     "transportMinutes": null
    },
    {
     "dayNo": 1,
     "sortOrder": 3,
     "spotCid": "127951",
     "stayMinutes": null,
     "transportToNext": null,
     "transportMinutes": null
    },
    {
     "dayNo": 1,
     "sortOrder": 4,
     "spotCid": "128757",
     "stayMinutes": null,
     "transportToNext": null,
     "transportMinutes": null
    },
    {
     "dayNo": 1,
     "sortOrder": 5,
     "spotCid": "128721",
     "stayMinutes": null,
     "transportToNext": null,
     "transportMinutes": null
    },
    {
     "dayNo": 1,
     "sortOrder": 6,
     "spotCid": "128998",
     "stayMinutes": null,
     "transportToNext": null,
     "transportMinutes": null
    }
   ]
  },
  {
   "cid": "1874106",
   "regionSlug": "jeonju",
   "title": "꼼꼼하게 둘러보는 전주 한옥마을과 주변 명소들",
   "summary": null,
   "durationDays": 1,
   "estCost": null,
   "cover": "http://tong.visitkorea.or.kr/cms/resource/65/1605565_image2_1.jpg",
   "items": [
    {
     "dayNo": 1,
     "sortOrder": 1,
     "spotCid": "126622",
     "stayMinutes": null,
     "transportToNext": null,
     "transportMinutes": null
    },
    {
     "dayNo": 1,
     "sortOrder": 2,
     "spotCid": "126387",
     "stayMinutes": null,
     "transportToNext": null,
     "transportMinutes": null
    },
    {
     "dayNo": 1,
     "sortOrder": 3,
     "spotCid": "579046",
     "stayMinutes": null,
     "transportToNext": null,
     "transportMinutes": null
    },
    {
     "dayNo": 1,
     "sortOrder": 4,
     "spotCid": "250331",
     "stayMinutes": null,
     "transportToNext": null,
     "transportMinutes": null
    },
    {
     "dayNo": 1,
     "sortOrder": 5,
     "spotCid": "147656",
     "stayMinutes": null,
     "transportToNext": null,
     "transportMinutes": null
    },
    {
     "dayNo": 1,
     "sortOrder": 6,
     "spotCid": "264284",
     "stayMinutes": null,
     "transportToNext": null,
     "transportMinutes": null
    },
    {
     "dayNo": 1,
     "sortOrder": 7,
     "spotCid": "1594374",
     "stayMinutes": null,
     "transportToNext": null,
     "transportMinutes": null
    },
    {
     "dayNo": 1,
     "sortOrder": 8,
     "spotCid": "126621",
     "stayMinutes": null,
     "transportToNext": null,
     "transportMinutes": null
    }
   ]
  },
  {
   "cid": "1874109",
   "regionSlug": "jeonju",
   "title": "천년전주마실길을 걷다",
   "summary": null,
   "durationDays": 1,
   "estCost": null,
   "cover": "http://tong.visitkorea.or.kr/cms/resource/43/898543_image2_1.jpg",
   "items": [
    {
     "dayNo": 1,
     "sortOrder": 1,
     "spotCid": "264284",
     "stayMinutes": null,
     "transportToNext": null,
     "transportMinutes": null
    },
    {
     "dayNo": 1,
     "sortOrder": 2,
     "spotCid": "133228",
     "stayMinutes": null,
     "transportToNext": null,
     "transportMinutes": null
    },
    {
     "dayNo": 1,
     "sortOrder": 3,
     "spotCid": "479910",
     "stayMinutes": null,
     "transportToNext": null,
     "transportMinutes": null
    },
    {
     "dayNo": 1,
     "sortOrder": 4,
     "spotCid": "126627",
     "stayMinutes": null,
     "transportToNext": null,
     "transportMinutes": null
    },
    {
     "dayNo": 1,
     "sortOrder": 5,
     "spotCid": "298199",
     "stayMinutes": null,
     "transportToNext": null,
     "transportMinutes": null
    },
    {
     "dayNo": 1,
     "sortOrder": 6,
     "spotCid": "126620",
     "stayMinutes": null,
     "transportToNext": null,
     "transportMinutes": null
    }
   ]
  },
  {
   "cid": "1921196",
   "regionSlug": "jeonju",
   "title": "전주의 고풍을 즐겁게 즐기자!",
   "summary": null,
   "durationDays": 1,
   "estCost": null,
   "cover": "http://tong.visitkorea.or.kr/cms/resource/44/1603944_image2_1.jpg",
   "items": [
    {
     "dayNo": 1,
     "sortOrder": 1,
     "spotCid": "126339",
     "stayMinutes": null,
     "transportToNext": null,
     "transportMinutes": null
    },
    {
     "dayNo": 1,
     "sortOrder": 2,
     "spotCid": "129786",
     "stayMinutes": null,
     "transportToNext": null,
     "transportMinutes": null
    },
    {
     "dayNo": 1,
     "sortOrder": 3,
     "spotCid": "264284",
     "stayMinutes": null,
     "transportToNext": null,
     "transportMinutes": null
    },
    {
     "dayNo": 1,
     "sortOrder": 4,
     "spotCid": "126320",
     "stayMinutes": null,
     "transportToNext": null,
     "transportMinutes": null
    },
    {
     "dayNo": 1,
     "sortOrder": 5,
     "spotCid": "126626",
     "stayMinutes": null,
     "transportToNext": null,
     "transportMinutes": null
    }
   ]
  },
  {
   "cid": "1952971",
   "regionSlug": "seoul",
   "title": "청와대 앞 코스 돌아보기",
   "summary": null,
   "durationDays": 1,
   "estCost": null,
   "cover": "http://tong.visitkorea.or.kr/cms/resource/55/1568155_image2_1.jpg",
   "items": [
    {
     "dayNo": 1,
     "sortOrder": 1,
     "spotCid": "126512",
     "stayMinutes": null,
     "transportToNext": null,
     "transportMinutes": null
    },
    {
     "dayNo": 1,
     "sortOrder": 2,
     "spotCid": "1604652",
     "stayMinutes": null,
     "transportToNext": null,
     "transportMinutes": null
    },
    {
     "dayNo": 1,
     "sortOrder": 3,
     "spotCid": "126533",
     "stayMinutes": null,
     "transportToNext": null,
     "transportMinutes": null
    },
    {
     "dayNo": 1,
     "sortOrder": 4,
     "spotCid": "2608977",
     "stayMinutes": null,
     "transportToNext": null,
     "transportMinutes": null
    }
   ]
  },
  {
   "cid": "2384832",
   "regionSlug": "seoul",
   "title": "가정의 달, 싱글을 위한 혼자 먹는 밥상 코스",
   "summary": null,
   "durationDays": 1,
   "estCost": null,
   "cover": "http://tong.visitkorea.or.kr/cms/resource/70/2382970_image2_1.jpg",
   "items": [
    {
     "dayNo": 1,
     "sortOrder": 1,
     "spotCid": "126525",
     "stayMinutes": null,
     "transportToNext": null,
     "transportMinutes": null
    },
    {
     "dayNo": 1,
     "sortOrder": 2,
     "spotCid": "229901",
     "stayMinutes": null,
     "transportToNext": null,
     "transportMinutes": null
    },
    {
     "dayNo": 1,
     "sortOrder": 3,
     "spotCid": "126999",
     "stayMinutes": null,
     "transportToNext": null,
     "transportMinutes": null
    }
   ]
  },
  {
   "cid": "2383723",
   "regionSlug": "seoul",
   "title": "태조 이성계, 조선을 건국하고 종묘와 사직을 세우다",
   "summary": null,
   "durationDays": 1,
   "estCost": null,
   "cover": "http://tong.visitkorea.or.kr/cms/resource/68/2005768_image2_1.jpg",
   "items": [
    {
     "dayNo": 1,
     "sortOrder": 1,
     "spotCid": "127942",
     "stayMinutes": null,
     "transportToNext": null,
     "transportMinutes": null
    },
    {
     "dayNo": 1,
     "sortOrder": 2,
     "spotCid": "126508",
     "stayMinutes": null,
     "transportToNext": null,
     "transportMinutes": null
    },
    {
     "dayNo": 1,
     "sortOrder": 3,
     "spotCid": "126510",
     "stayMinutes": null,
     "transportToNext": null,
     "transportMinutes": null
    }
   ]
  },
  {
   "cid": "2372032",
   "regionSlug": "incheon",
   "title": "이국적인 분위기와 달콤한 도시 송도",
   "summary": null,
   "durationDays": 1,
   "estCost": null,
   "cover": "http://tong.visitkorea.or.kr/cms/resource/85/2050685_image2_1.jpg",
   "items": [
    {
     "dayNo": 1,
     "sortOrder": 1,
     "spotCid": "2350389",
     "stayMinutes": null,
     "transportToNext": null,
     "transportMinutes": null
    },
    {
     "dayNo": 1,
     "sortOrder": 2,
     "spotCid": "2350373",
     "stayMinutes": null,
     "transportToNext": null,
     "transportMinutes": null
    },
    {
     "dayNo": 1,
     "sortOrder": 3,
     "spotCid": "1851364",
     "stayMinutes": null,
     "transportToNext": null,
     "transportMinutes": null
    },
    {
     "dayNo": 1,
     "sortOrder": 4,
     "spotCid": "742171",
     "stayMinutes": null,
     "transportToNext": null,
     "transportMinutes": null
    }
   ]
  },
  {
   "cid": "2360808",
   "regionSlug": "incheon",
   "title": "그때를 아시나요? 고대부터 미래까지 시간여행",
   "summary": null,
   "durationDays": 1,
   "estCost": null,
   "cover": "http://tong.visitkorea.or.kr/cms/resource/70/1577670_image2_1.jpg",
   "items": [
    {
     "dayNo": 1,
     "sortOrder": 1,
     "spotCid": "1957680",
     "stayMinutes": null,
     "transportToNext": null,
     "transportMinutes": null
    },
    {
     "dayNo": 1,
     "sortOrder": 2,
     "spotCid": "1851364",
     "stayMinutes": null,
     "transportToNext": null,
     "transportMinutes": null
    },
    {
     "dayNo": 1,
     "sortOrder": 3,
     "spotCid": "1619527",
     "stayMinutes": null,
     "transportToNext": null,
     "transportMinutes": null
    },
    {
     "dayNo": 1,
     "sortOrder": 4,
     "spotCid": "821412",
     "stayMinutes": null,
     "transportToNext": null,
     "transportMinutes": null
    },
    {
     "dayNo": 1,
     "sortOrder": 5,
     "spotCid": "128767",
     "stayMinutes": null,
     "transportToNext": null,
     "transportMinutes": null
    },
    {
     "dayNo": 1,
     "sortOrder": 6,
     "spotCid": "2706344",
     "stayMinutes": null,
     "transportToNext": null,
     "transportMinutes": null
    }
   ]
  },
  {
   "cid": "2987504",
   "regionSlug": "incheon",
   "title": "자연과 예술, 평화의 바람을 담은 문화예술 여행코스",
   "summary": null,
   "durationDays": 1,
   "estCost": null,
   "cover": "http://tong.visitkorea.or.kr/cms/resource/07/190607_image2_1.jpg",
   "items": [
    {
     "dayNo": 1,
     "sortOrder": 1,
     "spotCid": "2766410",
     "stayMinutes": null,
     "transportToNext": null,
     "transportMinutes": null
    },
    {
     "dayNo": 1,
     "sortOrder": 2,
     "spotCid": "126542",
     "stayMinutes": null,
     "transportToNext": null,
     "transportMinutes": null
    },
    {
     "dayNo": 1,
     "sortOrder": 3,
     "spotCid": "2831210",
     "stayMinutes": null,
     "transportToNext": null,
     "transportMinutes": null
    },
    {
     "dayNo": 1,
     "sortOrder": 4,
     "spotCid": "127548",
     "stayMinutes": null,
     "transportToNext": null,
     "transportMinutes": null
    },
    {
     "dayNo": 1,
     "sortOrder": 5,
     "spotCid": "125496",
     "stayMinutes": null,
     "transportToNext": null,
     "transportMinutes": null
    }
   ]
  },
  {
   "cid": "2402006",
   "regionSlug": "daegu",
   "title": "‘이열치열’ 하러 대구로 떠나자!",
   "summary": null,
   "durationDays": 1,
   "estCost": null,
   "cover": "http://tong.visitkorea.or.kr/cms/resource/94/1026094_image2_1.jpg",
   "items": [
    {
     "dayNo": 1,
     "sortOrder": 1,
     "spotCid": "126130",
     "stayMinutes": null,
     "transportToNext": null,
     "transportMinutes": null
    },
    {
     "dayNo": 1,
     "sortOrder": 2,
     "spotCid": "1626349",
     "stayMinutes": null,
     "transportToNext": null,
     "transportMinutes": null
    }
   ]
  },
  {
   "cid": "2360866",
   "regionSlug": "daegu",
   "title": "세월이 만든 멋과 정취의 도시",
   "summary": null,
   "durationDays": 1,
   "estCost": null,
   "cover": "http://tong.visitkorea.or.kr/cms/resource/27/1644427_image2_1.jpg",
   "items": [
    {
     "dayNo": 1,
     "sortOrder": 1,
     "spotCid": "128120",
     "stayMinutes": null,
     "transportToNext": null,
     "transportMinutes": null
    },
    {
     "dayNo": 1,
     "sortOrder": 2,
     "spotCid": "1613870",
     "stayMinutes": null,
     "transportToNext": null,
     "transportMinutes": null
    },
    {
     "dayNo": 1,
     "sortOrder": 3,
     "spotCid": "1059329",
     "stayMinutes": null,
     "transportToNext": null,
     "transportMinutes": null
    },
    {
     "dayNo": 1,
     "sortOrder": 4,
     "spotCid": "1871383",
     "stayMinutes": null,
     "transportToNext": null,
     "transportMinutes": null
    }
   ]
  },
  {
   "cid": "2360858",
   "regionSlug": "daegu",
   "title": "대구의 자연을 품은 팔공산에 오르다.",
   "summary": null,
   "durationDays": 1,
   "estCost": null,
   "cover": "http://tong.visitkorea.or.kr/cms/resource/17/1315717_image2_1.jpg",
   "items": [
    {
     "dayNo": 1,
     "sortOrder": 1,
     "spotCid": "126019",
     "stayMinutes": null,
     "transportToNext": null,
     "transportMinutes": null
    },
    {
     "dayNo": 1,
     "sortOrder": 2,
     "spotCid": "126834",
     "stayMinutes": null,
     "transportToNext": null,
     "transportMinutes": null
    },
    {
     "dayNo": 1,
     "sortOrder": 3,
     "spotCid": "126160",
     "stayMinutes": null,
     "transportToNext": null,
     "transportMinutes": null
    },
    {
     "dayNo": 1,
     "sortOrder": 4,
     "spotCid": "701683",
     "stayMinutes": null,
     "transportToNext": null,
     "transportMinutes": null
    }
   ]
  },
  {
   "cid": "2360837",
   "regionSlug": "daejeon",
   "title": "생태환경과 과학으로 꿈꾸는 멋진 도시",
   "summary": null,
   "durationDays": 1,
   "estCost": null,
   "cover": "http://tong.visitkorea.or.kr/cms/resource/45/1870845_image2_1.jpg",
   "items": [
    {
     "dayNo": 1,
     "sortOrder": 1,
     "spotCid": "1907589",
     "stayMinutes": null,
     "transportToNext": null,
     "transportMinutes": null
    },
    {
     "dayNo": 1,
     "sortOrder": 2,
     "spotCid": "126681",
     "stayMinutes": null,
     "transportToNext": null,
     "transportMinutes": null
    },
    {
     "dayNo": 1,
     "sortOrder": 3,
     "spotCid": "125949",
     "stayMinutes": null,
     "transportToNext": null,
     "transportMinutes": null
    },
    {
     "dayNo": 1,
     "sortOrder": 4,
     "spotCid": "125858",
     "stayMinutes": null,
     "transportToNext": null,
     "transportMinutes": null
    }
   ]
  },
  {
   "cid": "2046868",
   "regionSlug": "daejeon",
   "title": "물길 따라 500리 마음 길 따라 1,000리",
   "summary": null,
   "durationDays": 1,
   "estCost": null,
   "cover": "http://tong.visitkorea.or.kr/cms/resource/58/1092358_image2_1.jpg",
   "items": [
    {
     "dayNo": 1,
     "sortOrder": 1,
     "spotCid": "1907688",
     "stayMinutes": null,
     "transportToNext": null,
     "transportMinutes": null
    },
    {
     "dayNo": 1,
     "sortOrder": 2,
     "spotCid": "125994",
     "stayMinutes": null,
     "transportToNext": null,
     "transportMinutes": null
    },
    {
     "dayNo": 1,
     "sortOrder": 3,
     "spotCid": "1089992",
     "stayMinutes": null,
     "transportToNext": null,
     "transportMinutes": null
    }
   ]
  },
  {
   "cid": "2605958",
   "regionSlug": "daejeon",
   "title": "도시의 자연 속에서 휴식을 취하다",
   "summary": null,
   "durationDays": 1,
   "estCost": null,
   "cover": null,
   "items": [
    {
     "dayNo": 1,
     "sortOrder": 1,
     "spotCid": "1907688",
     "stayMinutes": null,
     "transportToNext": null,
     "transportMinutes": null
    },
    {
     "dayNo": 1,
     "sortOrder": 2,
     "spotCid": "1720749",
     "stayMinutes": null,
     "transportToNext": null,
     "transportMinutes": null
    },
    {
     "dayNo": 1,
     "sortOrder": 3,
     "spotCid": "1906578",
     "stayMinutes": null,
     "transportToNext": null,
     "transportMinutes": null
    },
    {
     "dayNo": 1,
     "sortOrder": 4,
     "spotCid": "741658",
     "stayMinutes": null,
     "transportToNext": null,
     "transportMinutes": null
    }
   ]
  },
  {
   "cid": "2605931",
   "regionSlug": "gwangju",
   "title": "빛 고을에 울려 퍼진 민주화의 함성",
   "summary": null,
   "durationDays": 1,
   "estCost": null,
   "cover": "http://tong.visitkorea.or.kr/cms/resource/71/1195871_image2_1.jpg",
   "items": [
    {
     "dayNo": 1,
     "sortOrder": 1,
     "spotCid": "126425",
     "stayMinutes": null,
     "transportToNext": null,
     "transportMinutes": null
    },
    {
     "dayNo": 1,
     "sortOrder": 2,
     "spotCid": "126429",
     "stayMinutes": null,
     "transportToNext": null,
     "transportMinutes": null
    },
    {
     "dayNo": 1,
     "sortOrder": 3,
     "spotCid": "129782",
     "stayMinutes": null,
     "transportToNext": null,
     "transportMinutes": null
    },
    {
     "dayNo": 1,
     "sortOrder": 4,
     "spotCid": "129445",
     "stayMinutes": null,
     "transportToNext": null,
     "transportMinutes": null
    }
   ]
  },
  {
   "cid": "2361008",
   "regionSlug": "gwangju",
   "title": "근대와 현대를 넘나드는 100년의 시간여행",
   "summary": null,
   "durationDays": 1,
   "estCost": null,
   "cover": "http://tong.visitkorea.or.kr/cms/resource/04/1995304_image2_1.jpg",
   "items": [
    {
     "dayNo": 1,
     "sortOrder": 1,
     "spotCid": "126324",
     "stayMinutes": null,
     "transportToNext": null,
     "transportMinutes": null
    },
    {
     "dayNo": 1,
     "sortOrder": 2,
     "spotCid": "2488220",
     "stayMinutes": null,
     "transportToNext": null,
     "transportMinutes": null
    }
   ]
  },
  {
   "cid": "2358008",
   "regionSlug": "gwangju",
   "title": "근현대를 넘나드는 100년 여행",
   "summary": null,
   "durationDays": 1,
   "estCost": null,
   "cover": "http://tong.visitkorea.or.kr/cms/resource/95/1587495_image2_1.jpg",
   "items": [
    {
     "dayNo": 1,
     "sortOrder": 1,
     "spotCid": "127074",
     "stayMinutes": null,
     "transportToNext": null,
     "transportMinutes": null
    },
    {
     "dayNo": 1,
     "sortOrder": 2,
     "spotCid": "127060",
     "stayMinutes": null,
     "transportToNext": null,
     "transportMinutes": null
    },
    {
     "dayNo": 1,
     "sortOrder": 3,
     "spotCid": "127073",
     "stayMinutes": null,
     "transportToNext": null,
     "transportMinutes": null
    },
    {
     "dayNo": 1,
     "sortOrder": 4,
     "spotCid": "1330521",
     "stayMinutes": null,
     "transportToNext": null,
     "transportMinutes": null
    }
   ]
  },
  {
   "cid": "2394354",
   "regionSlug": "ulsan",
   "title": "울산의 자동차 산업관광 코스",
   "summary": null,
   "durationDays": 1,
   "estCost": null,
   "cover": null,
   "items": [
    {
     "dayNo": 1,
     "sortOrder": 1,
     "spotCid": "1327462",
     "stayMinutes": null,
     "transportToNext": null,
     "transportMinutes": null
    },
    {
     "dayNo": 1,
     "sortOrder": 2,
     "spotCid": "1393773",
     "stayMinutes": null,
     "transportToNext": null,
     "transportMinutes": null
    },
    {
     "dayNo": 1,
     "sortOrder": 3,
     "spotCid": "128202",
     "stayMinutes": null,
     "transportToNext": null,
     "transportMinutes": null
    },
    {
     "dayNo": 1,
     "sortOrder": 4,
     "spotCid": "1955825",
     "stayMinutes": null,
     "transportToNext": null,
     "transportMinutes": null
    },
    {
     "dayNo": 1,
     "sortOrder": 5,
     "spotCid": "2944473",
     "stayMinutes": null,
     "transportToNext": null,
     "transportMinutes": null
    }
   ]
  },
  {
   "cid": "2360875",
   "regionSlug": "ulsan",
   "title": "천혜의 자연 경관과 굵직한 산업시설로 가득한 고래들의 고향",
   "summary": null,
   "durationDays": 1,
   "estCost": null,
   "cover": "http://tong.visitkorea.or.kr/cms/resource/45/1588045_image2_1.jpg",
   "items": [
    {
     "dayNo": 1,
     "sortOrder": 1,
     "spotCid": "128208",
     "stayMinutes": null,
     "transportToNext": null,
     "transportMinutes": null
    },
    {
     "dayNo": 1,
     "sortOrder": 2,
     "spotCid": "128022",
     "stayMinutes": null,
     "transportToNext": null,
     "transportMinutes": null
    },
    {
     "dayNo": 1,
     "sortOrder": 3,
     "spotCid": "127644",
     "stayMinutes": null,
     "transportToNext": null,
     "transportMinutes": null
    },
    {
     "dayNo": 1,
     "sortOrder": 4,
     "spotCid": "128184",
     "stayMinutes": null,
     "transportToNext": null,
     "transportMinutes": null
    },
    {
     "dayNo": 1,
     "sortOrder": 5,
     "spotCid": "128183",
     "stayMinutes": null,
     "transportToNext": null,
     "transportMinutes": null
    }
   ]
  },
  {
   "cid": "2037282",
   "regionSlug": "ulsan",
   "title": "붉은 단풍에 홀리고, 은빛 억새에 취하고",
   "summary": null,
   "durationDays": 1,
   "estCost": null,
   "cover": "http://tong.visitkorea.or.kr/cms/resource/71/1963071_image2_1.jpg",
   "items": [
    {
     "dayNo": 1,
     "sortOrder": 1,
     "spotCid": "126184",
     "stayMinutes": null,
     "transportToNext": null,
     "transportMinutes": null
    },
    {
     "dayNo": 1,
     "sortOrder": 2,
     "spotCid": "128184",
     "stayMinutes": null,
     "transportToNext": null,
     "transportMinutes": null
    },
    {
     "dayNo": 1,
     "sortOrder": 3,
     "spotCid": "127012",
     "stayMinutes": null,
     "transportToNext": null,
     "transportMinutes": null
    },
    {
     "dayNo": 1,
     "sortOrder": 4,
     "spotCid": "130649",
     "stayMinutes": null,
     "transportToNext": null,
     "transportMinutes": null
    },
    {
     "dayNo": 1,
     "sortOrder": 5,
     "spotCid": "769495",
     "stayMinutes": null,
     "transportToNext": null,
     "transportMinutes": null
    },
    {
     "dayNo": 1,
     "sortOrder": 6,
     "spotCid": "127515",
     "stayMinutes": null,
     "transportToNext": null,
     "transportMinutes": null
    }
   ]
  },
  {
   "cid": "1889333",
   "regionSlug": "sejong",
   "title": "반달가슴곰과 놀아보자!",
   "summary": null,
   "durationDays": 1,
   "estCost": null,
   "cover": null,
   "items": [
    {
     "dayNo": 1,
     "sortOrder": 1,
     "spotCid": "125981",
     "stayMinutes": null,
     "transportToNext": null,
     "transportMinutes": null
    },
    {
     "dayNo": 1,
     "sortOrder": 2,
     "spotCid": "730441",
     "stayMinutes": null,
     "transportToNext": null,
     "transportMinutes": null
    },
    {
     "dayNo": 1,
     "sortOrder": 3,
     "spotCid": "125902",
     "stayMinutes": null,
     "transportToNext": null,
     "transportMinutes": null
    }
   ]
  },
  {
   "cid": "1928035",
   "regionSlug": "sejong",
   "title": "대전의 역사를 찾아가는 길",
   "summary": null,
   "durationDays": 1,
   "estCost": null,
   "cover": "http://tong.visitkorea.or.kr/cms/resource/31/1601631_image2_1.jpg",
   "items": [
    {
     "dayNo": 1,
     "sortOrder": 1,
     "spotCid": "125981",
     "stayMinutes": null,
     "transportToNext": null,
     "transportMinutes": null
    },
    {
     "dayNo": 1,
     "sortOrder": 2,
     "spotCid": "730441",
     "stayMinutes": null,
     "transportToNext": null,
     "transportMinutes": null
    },
    {
     "dayNo": 1,
     "sortOrder": 3,
     "spotCid": "125902",
     "stayMinutes": null,
     "transportToNext": null,
     "transportMinutes": null
    },
    {
     "dayNo": 1,
     "sortOrder": 4,
     "spotCid": "128876",
     "stayMinutes": null,
     "transportToNext": null,
     "transportMinutes": null
    }
   ]
  },
  {
   "cid": "2402720",
   "regionSlug": "sejong",
   "title": "낯설지만 익숙한, 세종시의 숨겨진 힐링 포인트",
   "summary": null,
   "durationDays": 1,
   "estCost": null,
   "cover": null,
   "items": [
    {
     "dayNo": 1,
     "sortOrder": 1,
     "spotCid": "730441",
     "stayMinutes": null,
     "transportToNext": null,
     "transportMinutes": null
    },
    {
     "dayNo": 1,
     "sortOrder": 2,
     "spotCid": "125875",
     "stayMinutes": null,
     "transportToNext": null,
     "transportMinutes": null
    },
    {
     "dayNo": 1,
     "sortOrder": 3,
     "spotCid": "1999506",
     "stayMinutes": null,
     "transportToNext": null,
     "transportMinutes": null
    }
   ]
  },
  {
   "cid": "1887407",
   "regionSlug": "suwon",
   "title": "수원화성의 도시, 수원에서 즐기는 특별한 여행",
   "summary": null,
   "durationDays": 1,
   "estCost": null,
   "cover": "http://tong.visitkorea.or.kr/cms/resource/82/728982_image2_1.jpg",
   "items": [
    {
     "dayNo": 1,
     "sortOrder": 1,
     "spotCid": "130711",
     "stayMinutes": null,
     "transportToNext": null,
     "transportMinutes": null
    },
    {
     "dayNo": 1,
     "sortOrder": 2,
     "spotCid": "750947",
     "stayMinutes": null,
     "transportToNext": null,
     "transportMinutes": null
    },
    {
     "dayNo": 1,
     "sortOrder": 3,
     "spotCid": "129191",
     "stayMinutes": null,
     "transportToNext": null,
     "transportMinutes": null
    }
   ]
  },
  {
   "cid": "1887437",
   "regionSlug": "suwon",
   "title": "정조의 마음을 따라 화성을 걷다",
   "summary": null,
   "durationDays": 1,
   "estCost": null,
   "cover": "http://tong.visitkorea.or.kr/cms/resource/29/1092229_image2_1.jpg",
   "items": [
    {
     "dayNo": 1,
     "sortOrder": 1,
     "spotCid": "1921150",
     "stayMinutes": null,
     "transportToNext": null,
     "transportMinutes": null
    },
    {
     "dayNo": 1,
     "sortOrder": 2,
     "spotCid": "129437",
     "stayMinutes": null,
     "transportToNext": null,
     "transportMinutes": null
    },
    {
     "dayNo": 1,
     "sortOrder": 3,
     "spotCid": "125555",
     "stayMinutes": null,
     "transportToNext": null,
     "transportMinutes": null
    }
   ]
  },
  {
   "cid": "2716748",
   "regionSlug": "chuncheon",
   "title": "춘천 의암호반길",
   "summary": null,
   "durationDays": 1,
   "estCost": null,
   "cover": "http://tong.visitkorea.or.kr/cms/resource/79/2716679_image2_1.jpg",
   "items": [
    {
     "dayNo": 1,
     "sortOrder": 1,
     "spotCid": "130472",
     "stayMinutes": null,
     "transportToNext": null,
     "transportMinutes": null
    },
    {
     "dayNo": 1,
     "sortOrder": 2,
     "spotCid": "1600871",
     "stayMinutes": null,
     "transportToNext": null,
     "transportMinutes": null
    },
    {
     "dayNo": 1,
     "sortOrder": 3,
     "spotCid": "2710586",
     "stayMinutes": null,
     "transportToNext": null,
     "transportMinutes": null
    },
    {
     "dayNo": 1,
     "sortOrder": 4,
     "spotCid": "2605236",
     "stayMinutes": null,
     "transportToNext": null,
     "transportMinutes": null
    }
   ]
  },
  {
   "cid": "1960290",
   "regionSlug": "chuncheon",
   "title": "강원 춘천의 이색문화 체험 코스",
   "summary": null,
   "durationDays": 1,
   "estCost": null,
   "cover": "http://tong.visitkorea.or.kr/cms/resource/60/619060_image2_1.jpg",
   "items": [
    {
     "dayNo": 1,
     "sortOrder": 1,
     "spotCid": "130472",
     "stayMinutes": null,
     "transportToNext": null,
     "transportMinutes": null
    },
    {
     "dayNo": 1,
     "sortOrder": 2,
     "spotCid": "127433",
     "stayMinutes": null,
     "transportToNext": null,
     "transportMinutes": null
    },
    {
     "dayNo": 1,
     "sortOrder": 3,
     "spotCid": "135931",
     "stayMinutes": null,
     "transportToNext": null,
     "transportMinutes": null
    },
    {
     "dayNo": 1,
     "sortOrder": 4,
     "spotCid": "264434",
     "stayMinutes": null,
     "transportToNext": null,
     "transportMinutes": null
    }
   ]
  },
  {
   "cid": "1871355",
   "regionSlug": "chuncheon",
   "title": "아름다운 호수 풍광이 마음을 치유하는 힐링 여행",
   "summary": null,
   "durationDays": 1,
   "estCost": null,
   "cover": "http://tong.visitkorea.or.kr/cms/resource/57/1583557_image2_1.jpg",
   "items": [
    {
     "dayNo": 1,
     "sortOrder": 1,
     "spotCid": "127476",
     "stayMinutes": null,
     "transportToNext": null,
     "transportMinutes": null
    },
    {
     "dayNo": 1,
     "sortOrder": 2,
     "spotCid": "128934",
     "stayMinutes": null,
     "transportToNext": null,
     "transportMinutes": null
    },
    {
     "dayNo": 1,
     "sortOrder": 3,
     "spotCid": "125762",
     "stayMinutes": null,
     "transportToNext": null,
     "transportMinutes": null
    },
    {
     "dayNo": 1,
     "sortOrder": 4,
     "spotCid": "628379",
     "stayMinutes": null,
     "transportToNext": null,
     "transportMinutes": null
    },
    {
     "dayNo": 1,
     "sortOrder": 5,
     "spotCid": "129686",
     "stayMinutes": null,
     "transportToNext": null,
     "transportMinutes": null
    }
   ]
  },
  {
   "cid": "1887365",
   "regionSlug": "cheongju",
   "title": "세계 최고의 금속활자가 인쇄된 흥덕사지",
   "summary": null,
   "durationDays": 1,
   "estCost": null,
   "cover": null,
   "items": [
    {
     "dayNo": 1,
     "sortOrder": 1,
     "spotCid": "125970",
     "stayMinutes": null,
     "transportToNext": null,
     "transportMinutes": null
    },
    {
     "dayNo": 1,
     "sortOrder": 2,
     "spotCid": "346650",
     "stayMinutes": null,
     "transportToNext": null,
     "transportMinutes": null
    },
    {
     "dayNo": 1,
     "sortOrder": 3,
     "spotCid": "133342",
     "stayMinutes": null,
     "transportToNext": null,
     "transportMinutes": null
    },
    {
     "dayNo": 1,
     "sortOrder": 4,
     "spotCid": "125911",
     "stayMinutes": null,
     "transportToNext": null,
     "transportMinutes": null
    },
    {
     "dayNo": 1,
     "sortOrder": 5,
     "spotCid": "125964",
     "stayMinutes": null,
     "transportToNext": null,
     "transportMinutes": null
    }
   ]
  },
  {
   "cid": "1957825",
   "regionSlug": "cheongju",
   "title": "달천에 떠오른 8개 봉우리 수주팔봉 코스",
   "summary": null,
   "durationDays": 1,
   "estCost": null,
   "cover": null,
   "items": [
    {
     "dayNo": 1,
     "sortOrder": 1,
     "spotCid": "299977",
     "stayMinutes": null,
     "transportToNext": null,
     "transportMinutes": null
    },
    {
     "dayNo": 1,
     "sortOrder": 2,
     "spotCid": "1687791",
     "stayMinutes": null,
     "transportToNext": null,
     "transportMinutes": null
    },
    {
     "dayNo": 1,
     "sortOrder": 3,
     "spotCid": "132976",
     "stayMinutes": null,
     "transportToNext": null,
     "transportMinutes": null
    },
    {
     "dayNo": 1,
     "sortOrder": 4,
     "spotCid": "129465",
     "stayMinutes": null,
     "transportToNext": null,
     "transportMinutes": null
    },
    {
     "dayNo": 1,
     "sortOrder": 5,
     "spotCid": "127963",
     "stayMinutes": null,
     "transportToNext": null,
     "transportMinutes": null
    }
   ]
  },
  {
   "cid": "1938449",
   "regionSlug": "cheongju",
   "title": "오감을 자극하는 감각적인 체험여행",
   "summary": null,
   "durationDays": 1,
   "estCost": null,
   "cover": null,
   "items": [
    {
     "dayNo": 1,
     "sortOrder": 1,
     "spotCid": "133342",
     "stayMinutes": null,
     "transportToNext": null,
     "transportMinutes": null
    },
    {
     "dayNo": 1,
     "sortOrder": 2,
     "spotCid": "1938398",
     "stayMinutes": null,
     "transportToNext": null,
     "transportMinutes": null
    },
    {
     "dayNo": 1,
     "sortOrder": 3,
     "spotCid": "1938427",
     "stayMinutes": null,
     "transportToNext": null,
     "transportMinutes": null
    }
   ]
  },
  {
   "cid": "1870729",
   "regionSlug": "tongyeong",
   "title": "이순신 장군의 흔적을 따라가는 여행",
   "summary": null,
   "durationDays": 1,
   "estCost": null,
   "cover": "http://tong.visitkorea.or.kr/cms/resource/71/809071_image2_1.jpg",
   "items": [
    {
     "dayNo": 1,
     "sortOrder": 1,
     "spotCid": "127105",
     "stayMinutes": null,
     "transportToNext": null,
     "transportMinutes": null
    },
    {
     "dayNo": 1,
     "sortOrder": 2,
     "spotCid": "753306",
     "stayMinutes": null,
     "transportToNext": null,
     "transportMinutes": null
    },
    {
     "dayNo": 1,
     "sortOrder": 3,
     "spotCid": "126662",
     "stayMinutes": null,
     "transportToNext": null,
     "transportMinutes": null
    },
    {
     "dayNo": 1,
     "sortOrder": 4,
     "spotCid": "126198",
     "stayMinutes": null,
     "transportToNext": null,
     "transportMinutes": null
    },
    {
     "dayNo": 1,
     "sortOrder": 5,
     "spotCid": "126661",
     "stayMinutes": null,
     "transportToNext": null,
     "transportMinutes": null
    }
   ]
  },
  {
   "cid": "2722654",
   "regionSlug": "tongyeong",
   "title": "바다와 예술의 고을 통영에서 숨을 돌리다!",
   "summary": null,
   "durationDays": 1,
   "estCost": null,
   "cover": null,
   "items": [
    {
     "dayNo": 1,
     "sortOrder": 1,
     "spotCid": "2675046",
     "stayMinutes": null,
     "transportToNext": null,
     "transportMinutes": null
    },
    {
     "dayNo": 1,
     "sortOrder": 2,
     "spotCid": "2605111",
     "stayMinutes": null,
     "transportToNext": null,
     "transportMinutes": null
    },
    {
     "dayNo": 1,
     "sortOrder": 3,
     "spotCid": "2679716",
     "stayMinutes": null,
     "transportToNext": null,
     "transportMinutes": null
    },
    {
     "dayNo": 1,
     "sortOrder": 4,
     "spotCid": "127105",
     "stayMinutes": null,
     "transportToNext": null,
     "transportMinutes": null
    },
    {
     "dayNo": 1,
     "sortOrder": 5,
     "spotCid": "231923",
     "stayMinutes": null,
     "transportToNext": null,
     "transportMinutes": null
    }
   ]
  },