{
 "exportedAt": "2026-07-22",
 "items": [
  {
   "tourapiContentId": "3481597",
   "regionSlug": "seoul",
   "name": "페인터즈",
   "summary": null,
   "address": "서울특별시 중구 정동길 3 (정동) 경향신문사 1층",
   "lat": 37.5681732680976,
   "lng": 126.969976113229,
   "startDate": "2022-11-01",
   "endDate": "2026-12-31",
   "imageUrl": "https://tong.visitkorea.or.kr/cms/resource/01/4060301_image2_1.png",
   "tel": "02-766-7848"
  },
  {
   "tourapiContentId": "2786391",
   "regionSlug": "busan",
   "name": "광안리 M(Marvelous) 드론 라이트쇼",
   "summary": null,
   "address": "부산광역시 수영구 광안해변로 219 (광안동)",
   "lat": 35.1537727886,
   "lng": 129.1185199367,
   "startDate": "2026-01-01",
   "endDate": "2026-12-31",
   "imageUrl": "https://tong.visitkorea.or.kr/cms/resource/12/3518612_image2_1.jpeg",
   "tel": "051-610-6518"
  },
  {
   "tourapiContentId": "3473295",
   "regionSlug": "seoul",
   "name": "DDP 건축투어",
   "summary": null,
   "address": "서울특별시 중구 을지로 281 (을지로7가)",
   "lat": 37.56605397262908,
   "lng": 127.009554769089,
   "startDate": "2026-01-01",
   "endDate": "2026-12-31",
   "imageUrl": "https://tong.visitkorea.or.kr/cms/resource/09/4046009_image2_1.png",
   "tel": "02-2153-0310, 0311 (12:00~13:00 점심시간)"
  },
  {
   "tourapiContentId": "4060434",
   "regionSlug": "seoul",
   "name": "국악공연 진연",
   "summary": null,
   "address": "서울특별시 종로구 인사동5길 10 (인사동)",
   "lat": 37.5728652641047,
   "lng": 126.985653181823,
   "startDate": "2026-01-01",
   "endDate": "2026-12-31",
   "imageUrl": "https://tong.visitkorea.or.kr/cms/resource/35/4060435_image2_1.jpg",
   "tel": "02-953-0515"
  },
  {
   "tourapiContentId": "292961",
   "regionSlug": "seoul",
   "name": "서울 왕궁수문장 교대의식",
   "summary": null,
   "address": "서울특별시 중구 세종대로 99 (정동)",
   "lat": 37.56505491943057,
   "lng": 126.9765746344483,
   "startDate": "2026-01-01",
   "endDate": "2026-12-31",
   "imageUrl": "https://tong.visitkorea.or.kr/cms/resource/79/4039379_image2_1.jpg",
   "tel": "02-6242-7402"
  },
  {
   "tourapiContentId": "2809535",
   "regionSlug": "seoul",
   "name": "남산봉수의식 등 전통문화행사",
   "summary": null,
   "address": "서울특별시 종로구 종로 54 (관철동)",
   "lat": 37.5697673859634,
   "lng": 126.983677617361,
   "startDate": "2026-01-01",
   "endDate": "2026-12-31",
   "imageUrl": "https://tong.visitkorea.or.kr/cms/resource/57/4001657_image2_1.jpg",
   "tel": "행사장 02-319-1220운영사 02-737-6444"
  },
  {
   "tourapiContentId": "3107059",
   "regionSlug": "seoul",
   "name": "2026 숭례문 파수의식",
   "summary": null,
   "address": "서울특별시 중구 세종대로 40 (남대문로4가)",
   "lat": 37.55992837962214,
   "lng": 126.9753609085231,
   "startDate": "2026-01-01",
   "endDate": "2026-12-31",
   "imageUrl": "https://tong.visitkorea.or.kr/cms/resource/99/4001599_image2_1.jpg",
   "tel": "02-3789-7402"
  },
  {
   "tourapiContentId": "2433596",
   "regionSlug": "incheon",
   "name": "왕가의 산책",
   "summary": null,
   "address": "인천광역시 영종구 공항로 272 (운서동) (세종로)",
   "lat": 37.458350712273,
   "lng": 126.427699293474,
   "startDate": "2026-01-05",
   "endDate": "2026-12-31",
   "imageUrl": "https://tong.visitkorea.or.kr/cms/resource/76/4029576_image2_1.jpg",
   "tel": "032-743-0468"
  },
  {
   "tourapiContentId": "4067214",
   "regionSlug": "yeosu",
   "name": "2026 섬 방문의 해",
   "summary": null,
   "address": "전남광주통합특별시 여수시 선어시장길 6 (중앙동)",
   "lat": 34.7395781561546,
   "lng": 127.736371787128,
   "startDate": "2026-03-01",
   "endDate": "2026-12-31",
   "imageUrl": "https://tong.visitkorea.or.kr/cms/resource/13/4067313_image2_1.jpg",
   "tel": "070-4337-5058"
  },
  {
   "tourapiContentId": "3488655",
   "regionSlug": "gwangju",
   "name": "2026 문화가 있는 날 청춘마이크",
   "summary": null,
   "address": "전남광주통합특별시 북구 하서로 50 (운암동)",
   "lat": 35.1814560887758,
   "lng": 126.884278856104,
   "startDate": "2026-03-12",
   "endDate": "2026-12-11",
   "imageUrl": "https://tong.visitkorea.or.kr/cms/resource/85/4039885_image2_1.jpg",
   "tel": "062-412-1197"
  },
  {
   "tourapiContentId": "4062064",
   "regionSlug": "gyeongju",
   "name": "쉼표：비우고, 머무르고, 채우는",
   "summary": null,
   "address": "경상북도 경주시 금성로 260-6 (노서동)",
   "lat": 35.8405467269236,
   "lng": 129.207631152376,
   "startDate": "2026-03-21",
   "endDate": "2026-08-17",
   "imageUrl": "https://tong.visitkorea.or.kr/cms/resource/26/4062226_image2_1.jpg",
   "tel": "054-705-5501"
  },
  {
   "tourapiContentId": "3492276",
   "regionSlug": "incheon",
   "name": "2026 문화가 있는 날",
   "summary": null,
   "address": "인천광역시 제물포구 송현동",
   "lat": 37.476334,
   "lng": 126.632619,
   "startDate": "2026-04-01",
   "endDate": "2026-11-29",
   "imageUrl": "https://tong.visitkorea.or.kr/cms/resource/82/4055582_image2_1.png",
   "tel": "032-575-2526, 070-5001-0265"
  },
  {
   "tourapiContentId": "3377038",
   "regionSlug": "seoul",
   "name": "2026 국제선명상대회",
   "summary": null,
   "address": "서울특별시 강남구 봉은사로 531 (삼성동)",
   "lat": 37.5158257049833,
   "lng": 127.057734484281,
   "startDate": "2026-04-03",
   "endDate": "2026-11-12",
   "imageUrl": "https://tong.visitkorea.or.kr/cms/resource/90/4054090_image2_1.jpg",
   "tel": "010-8441-2371"
  },
  {
   "tourapiContentId": "2865136",
   "regionSlug": "gwangju",
   "name": "2026 라온페스타",
   "summary": null,
   "address": "전남광주통합특별시 동구 충장로 94 (충장로2가)",
   "lat": 35.1474235264676,
   "lng": 126.91694835998,
   "startDate": "2026-04-04",
   "endDate": "2026-11-07",
   "imageUrl": "https://tong.visitkorea.or.kr/cms/resource/01/4067301_image2_1.jpg",
   "tel": "062-413-1274"
  },
  {
   "tourapiContentId": "3478890",
   "regionSlug": "gwangju",
   "name": "2026 금남로 차 없는 거리 ‘걷자잉’",
   "summary": null,
   "address": "전남광주통합특별시 동구 금남로 245 (금남로1가)",
   "lat": 35.14836487617714,
   "lng": 126.9187315573319,
   "startDate": "2026-04-04",
   "endDate": "2026-11-07",
   "imageUrl": "https://tong.visitkorea.or.kr/cms/resource/37/4040737_image2_1.jpg",
   "tel": "062-413-2535"
  },
  {
   "tourapiContentId": "3512205",
   "regionSlug": "jeju",
   "name": "2026 서귀포 원도심 문화페스티벌",
   "summary": null,
   "address": "제주특별자치도 서귀포시 이중섭로 11 (서귀동)",
   "lat": 33.24708081676599,
   "lng": 126.5644588920107,
   "startDate": "2026-04-11",
   "endDate": "2026-10-30",
   "imageUrl": "https://tong.visitkorea.or.kr/cms/resource/17/4044417_image2_1.jpg",
   "tel": "064-760-2572"
  },
  {
   "tourapiContentId": "3497454",
   "regionSlug": "seoul",
   "name": "의정부지 상설 전통문화행사",
   "summary": null,
   "address": "서울특별시 종로구 종로1길 45 (세종로)",
   "lat": 37.57461832188537,
   "lng": 126.978384931809,
   "startDate": "2026-04-11",
   "endDate": "2026-10-31",
   "imageUrl": "https://tong.visitkorea.or.kr/cms/resource/13/4056513_image2_1.jpg",
   "tel": "02-737-6444"
  },
  {
   "tourapiContentId": "2547013",
   "regionSlug": "jeonju",
   "name": "전주한옥마을 전통연희 퍼레이드-노상놀이야",
   "summary": null,
   "address": "전북특별자치도 전주시 완산구 태조로 44 (풍남동3가)",
   "lat": 35.81417178626214,
   "lng": 127.1500212471874,
   "startDate": "2026-04-18",
   "endDate": "2026-10-31",
   "imageUrl": "https://tong.visitkorea.or.kr/cms/resource/58/4067258_image2_1.JPG",
   "tel": "- 063-236-1577 - 010-4348-3130"
  },
  {
   "tourapiContentId": "4058556",
   "regionSlug": "suwon",
   "name": "컬처라운지 경기, 장(場)",
   "summary": null,
   "address": "경기도 수원시 영통구 도청로 지하36 (이의동) 지하",
   "lat": 37.2879129895568,
   "lng": 127.054491044714,
   "startDate": "2026-04-18",
   "endDate": "2026-12-15",
   "imageUrl": "https://tong.visitkorea.or.kr/cms/resource/21/4058721_image2_1.png",
   "tel": "031-259-4724"
  },
  {
   "tourapiContentId": "3111722",
   "regionSlug": "seoul",
   "name": "한강역사탐방",
   "summary": null,
   "address": "서울특별시 영등포구 여의동로 330 (여의도동)",
   "lat": 37.52634785329442,
   "lng": 126.9335951930612,
   "startDate": "2026-04-20",
   "endDate": "2026-11-15",
   "imageUrl": "https://tong.visitkorea.or.kr/cms/resource/49/4058449_image2_1.png",
   "tel": "02-6953-9239"
  },
  {
   "tourapiContentId": "2434545",
   "regionSlug": "jeju",
   "name": "새연교 주말 문화공연 '금토금토 새연쇼'",
   "summary": null,
   "address": "제주특별자치도 서귀포시 남성중로 40 (서홍동)",
   "lat": 33.23920114254491,
   "lng": 126.5584238742126,
   "startDate": "2026-04-25",
   "endDate": "2026-10-31",
   "imageUrl": "https://tong.visitkorea.or.kr/cms/resource/22/4051822_image2_1.png",
   "tel": "064-760-2654"
  },
  {
   "tourapiContentId": "2720203",
   "regionSlug": "seoul",
   "name": "2026 서울거리공연 구석구석라이브",
   "summary": null,
   "address": "서울특별시 종로구 세종대로 지하172 (세종로)",
   "lat": 37.5716228232824,
   "lng": 126.976787992565,
   "startDate": "2026-05-01",
   "endDate": "2026-12-31",
   "imageUrl": "https://tong.visitkorea.or.kr/cms/resource/74/4060474_image2_1.png",
   "tel": "02-2088-7218"
  },
  {
   "tourapiContentId": "3116066",
   "regionSlug": "seoul",
   "name": "한강야경투어",
   "summary": null,
   "address": "서울특별시 영등포구 여의동로 330 (여의도동)",
   "lat": 37.52634785329442,
   "lng": 126.9335951930612,
   "startDate": "2026-05-01",
   "endDate": "2026-09-19",
   "imageUrl": "https://tong.visitkorea.or.kr/cms/resource/46/4060146_image2_1.jpg",
   "tel": "02-6953-9239"
  },
  {
   "tourapiContentId": "2657619",
   "regionSlug": "suwon",
   "name": "2026 화성행궁 야간개장",
   "summary": null,
   "address": "경기도 수원시 팔달구 정조로 825 (남창동)",
   "lat": 37.2818163237,
   "lng": 127.0163732353,
   "startDate": "2026-05-01",
   "endDate": "2026-11-01",
   "imageUrl": "https://tong.visitkorea.or.kr/cms/resource/63/4081263_image2_1.jpg",
   "tel": "031-290-3600"
  },
  {
   "tourapiContentId": "2598331",
   "regionSlug": "seoul",
   "name": "문화가 흐르는 서울광장",
   "summary": null,
   "address": "서울특별시 중구 을지로 지하12 (을지로1가)",
   "lat": 37.56544835496842,
   "lng": 126.9787818353424,
   "startDate": "2026-05-06",
   "endDate": "2026-12-31",
   "imageUrl": "https://tong.visitkorea.or.kr/cms/resource/68/4059668_image2_1.jpg",
   "tel": "02-2133-2543"
  },
  {
   "tourapiContentId": "4082595",
   "regionSlug": "seoul",
   "name": "팔색찬란",
   "summary": null,
   "address": "서울특별시 종로구 효자로13길 45 (효자동)",
   "lat": 37.5825448754,
   "lng": 126.9730592833,
   "startDate": "2026-06-04",
   "endDate": "2026-12-31",
   "imageUrl": "https://tong.visitkorea.or.kr/cms/resource/70/4082670_image2_1.png",
   "tel": "02-723-0300"
  },
  {
   "tourapiContentId": "3497353",
   "regionSlug": "busan",
   "name": "2026 부산바다도서관",
   "summary": null,
   "address": "부산광역시 수영구 민락동 110-19",
   "lat": 35.154689,
   "lng": 129.132986,
   "startDate": "2026-06-13",
   "endDate": "2026-07-05",
   "imageUrl": "https://tong.visitkorea.or.kr/cms/resource/73/4070173_image2_1.jpg",
   "tel": "051-745-7288"
  },
  {
   "tourapiContentId": "4065756",
   "regionSlug": "seoul",
   "name": "2026 N서울타워 글로벌 나이트워크",
   "summary": null,
   "address": "서울특별 중구 회현동1가 100-115 백범광장",
   "lat": 37.555064,
   "lng": 126.979198,
   "startDate": "2026-06-13",
   "endDate": "2026-07-11",
   "imageUrl": "https://tong.visitkorea.or.kr/cms/resource/53/4065953_image2_1.png",
   "tel": "02-554-9795"
  },
  {
   "tourapiContentId": "141963",
   "regionSlug": "daegu",
   "name": "제20회 대구국제뮤지컬페스티벌",
   "summary": null,
   "address": "대구광역시 달서구 공원순환로 201 (성당동)",
   "lat": 35.8447383632,
   "lng": 128.5580763673,
   "startDate": "2026-06-19",
   "endDate": "2026-07-06",
   "imageUrl": "https://tong.visitkorea.or.kr/cms/resource/51/4075151_image2_1.jpg",
   "tel": "053-422-1945"
  },
  {
   "tourapiContentId": "1829696",
   "regionSlug": "seoul",
   "name": "아시아프 (ASYAAF 100)",
   "summary": null,
   "address": "서울특별시 중구 세종대로21길 30 (태평로1가)",
   "lat": 37.5678450408989,
   "lng": 126.975895739578,
   "startDate": "2026-07-01",
   "endDate": "2026-08-05",
   "imageUrl": "https://tong.visitkorea.or.kr/cms/resource/49/4057349_image2_1.jpg",
   "tel": "02-724-6361"
  },
  {
   "tourapiContentId": "1801011",
   "regionSlug": "daegu",
   "name": "대구치맥페스티벌",
   "summary": null,
   "address": "대구광역시 달서구 공원순환로 36 (두류동)",
   "lat": 35.8508968806,
   "lng": 128.5587905692,
   "startDate": "2026-07-01",
   "endDate": "2026-07-05",
   "imageUrl": "https://tong.visitkorea.or.kr/cms/resource/84/4071284_image2_1.jpg",
   "tel": "053-248-9998"
  },
  {
   "tourapiContentId": "2607445",
   "regionSlug": "gangneung",
   "name": "강릉비치비어페스티벌",
   "summary": null,
   "address": "강원특별자치도 강릉시 경포로 515 (안현동) 경포해변 중앙광장",
   "lat": 37.805223671,
   "lng": 128.9067299347,
   "startDate": "2026-07-03",
   "endDate": "2026-07-05",
   "imageUrl": "https://tong.visitkorea.or.kr/cms/resource/30/4078330_image2_1.jpg",
   "tel": "033-640-5130"
  },
  {
   "tourapiContentId": "3035057",
   "regionSlug": "jeju",
   "name": "구팔일 댕댕이 대잔치！",
   "summary": null,
   "address": "제주특별자치도 제주시 애월읍 천덕로 880-24",
   "lat": 33.39087381270927,
   "lng": 126.3673792950854,
   "startDate": "2026-07-04",
   "endDate": "2026-07-05",
   "imageUrl": "https://tong.visitkorea.or.kr/cms/resource/36/4063736_image2_1.jpg",
   "tel": "1833-9810"
  },
  {
   "tourapiContentId": "4076709",
   "regionSlug": "seoul",
   "name": "문구전 2026 여름",
   "summary": null,
   "address": "서울특별시 서초구 강남대로 27 (양재동)",
   "lat": 37.4682787075,
   "lng": 127.0391364334,
   "startDate": "2026-07-04",
   "endDate": "2026-07-05",
   "imageUrl": "https://tong.visitkorea.or.kr/cms/resource/26/4076726_image2_1.png",
   "tel": "02-6010-9536"
  },
  {
   "tourapiContentId": "2375382",
   "regionSlug": "daegu",
   "name": "대구앞산축제",
   "summary": null,
   "address": "대구광역시 남구 고산4길 71 (봉덕동) 남구구민체육광장 일원",
   "lat": 35.8322903512,
   "lng": 128.6004362056,
   "startDate": "2026-07-04",
   "endDate": "2026-07-05",
   "imageUrl": "https://tong.visitkorea.or.kr/cms/resource/15/4077015_image2_1.JPG",
   "tel": "053-664-3263"
  },
  {
   "tourapiContentId": "4080156",
   "regionSlug": "busan",
   "name": "2026 부산브랜드페스타",
   "summary": null,
   "address": "부산광역시 해운대구 APEC로 55 (우동)",
   "lat": 35.1690637155,
   "lng": 129.1360182683,
   "startDate": "2026-07-10",
   "endDate": "2026-07-12",
   "imageUrl": "https://tong.visitkorea.or.kr/cms/resource/87/4080287_image2_1.jpg",
   "tel": "051-740-7408"
  },
  {
   "tourapiContentId": "1951053",
   "regionSlug": "ulsan",
   "name": "울산119안전문화축제",
   "summary": null,
   "address": "울산광역시 울주군 삼남읍 울산역로 255",
   "lat": 35.5556181512,
   "lng": 129.1316552505,
   "startDate": "2026-07-10",
   "endDate": "2026-07-11",
   "imageUrl": "https://tong.visitkorea.or.kr/cms/resource/90/4082690_image2_1.jpg",
   "tel": "052-241-2990"
  },
  {
   "tourapiContentId": "1824778",
   "regionSlug": "tongyeong",
   "name": "제18회 통영연극예술축제",
   "summary": null,
   "address": "경상남도 통영시 남망공원길 29 (동호동)",
   "lat": 34.84203825784412,
   "lng": 128.4274781812797,
   "startDate": "2026-07-10",
   "endDate": "2026-07-19",
   "imageUrl": "https://tong.visitkorea.or.kr/cms/resource/82/4070082_image2_1.jpg",
   "tel": "055-645-6379"
  },
  {
   "tourapiContentId": "2826964",
   "regionSlug": "seoul",
   "name": "그루브 인 관악",
   "summary": null,
   "address": "서울특별시 관악구 신림로3길 35 (신림동) 신림역 별빛내린천, S1472 관천로문화플랫폼",
   "lat": 37.4675533646,
   "lng": 126.9449623941,
   "startDate": "2026-07-11",
   "endDate": "2026-07-12",
   "imageUrl": "https://tong.visitkorea.or.kr/cms/resource/42/4071342_image2_1.jpg",
   "tel": "02-828-5764"
  },
  {
   "tourapiContentId": "2387785",
   "regionSlug": "seoul",
   "name": "2026 보드게임콘",
   "summary": null,
   "address": "서울특별시 강남구 영동대로 513 (삼성동)",
   "lat": 37.5118651508,
   "lng": 127.0592035846,
   "startDate": "2026-07-16",
   "endDate": "2026-07-19",
   "imageUrl": "https://tong.visitkorea.or.kr/cms/resource/35/4080135_image2_1.jpg",
   "tel": "070-8611-9803"
  },
  {
   "tourapiContentId": "1825520",
   "regionSlug": "suwon",
   "name": "2026 경기인형극제 in 수원",
   "summary": null,
   "address": "경기도 수원시 권선구 서둔로 166 (서둔동)",
   "lat": 37.2665289945,
   "lng": 126.9811749103,
   "startDate": "2026-07-16",
   "endDate": "2026-07-22",
   "imageUrl": "https://tong.visitkorea.or.kr/cms/resource/47/4076547_image2_1.jpg",
   "tel": "070-4681-0675"
  },
  {
   "tourapiContentId": "4088257",
   "regionSlug": "jeonju",
   "name": "인생독서X인생서점 북페어",
   "summary": null,
   "address": "전북특별자치도 전주시 완산구 전주천동로 118 (전동)",
   "lat": 35.8117509206,
   "lng": 127.1481603005,
   "startDate": "2026-07-17",
   "endDate": "2026-07-18",
   "imageUrl": "https://tong.visitkorea.or.kr/cms/resource/74/4088274_image2_1.jpg",
   "tel": "02-927-1438"
  },
  {
   "tourapiContentId": "3495394",
   "regionSlug": "jeonju",
   "name": "독립출판 북페어 전주책쾌",
   "summary": null,
   "address": "전북특별자치도 전주시 완산구 전주천동로 118 (전동) 2층",
   "lat": 35.8117335108,
   "lng": 127.148172882,
   "startDate": "2026-07-17",
   "endDate": "2026-07-18",
   "imageUrl": "https://tong.visitkorea.or.kr/cms/resource/55/4076355_image2_1.png",
   "tel": "063-230-1859"
  },
  {
   "tourapiContentId": "4086427",
   "regionSlug": "chuncheon",
   "name": "춘천 썸머워터 페스티벌",
   "summary": null,
   "address": "강원특별자치도 춘천시 삼천동 200-9 춘천수변공원",
   "lat": 37.8724857,
   "lng": 127.7002608,
   "startDate": "2026-07-17",
   "endDate": "2026-08-17",
   "imageUrl": "https://tong.visitkorea.or.kr/cms/resource/31/4086431_image2_1.jpg",
   "tel": "033-255-0920"
  },
  {
   "tourapiContentId": "4079965",
   "regionSlug": "daegu",
   "name": "청년축제 달성워터스플래시",
   "summary": null,
   "address": "대구광역시 달성군 다사읍 강정본길 57 강정보디아크광장",
   "lat": 35.8412414475,
   "lng": 128.4649553312,
   "startDate": "2026-07-18",
   "endDate": "2026-07-18",
   "imageUrl": "https://tong.visitkorea.or.kr/cms/resource/66/4079966_image2_1.jpg",
   "tel": "053-668-4267"
  },
  {
   "tourapiContentId": "4055637",
   "regionSlug": "busan",
   "name": "세계유산위원회 대한민국관(K-Heritage House)",
   "summary": null,
   "address": "부산광역시 해운대구 APEC로 55 (우동)",
   "lat": 35.1690637155,
   "lng": 129.1360182683,
   "startDate": "2026-07-20",
   "endDate": "2026-07-29",
   "imageUrl": "https://tong.visitkorea.or.kr/cms/resource/26/4055726_image2_1.jpeg",
   "tel": "02-3456-2880"
  },
  {
   "tourapiContentId": "3509884",
   "regionSlug": "seoul",
   "name": "서울썸머비치",
   "summary": null,
   "address": "서울특별시 종로구 세종대로 175 (세종로)",
   "lat": 37.5718478585,
   "lng": 126.9761682759,
   "startDate": "2026-07-20",
   "endDate": "2026-08-09",
   "imageUrl": "https://tong.visitkorea.or.kr/cms/resource/04/4079504_image2_1.png",
   "tel": "02-6941-0645"
  },
  {
   "tourapiContentId": "2543724",
   "regionSlug": "gangneung",
   "name": "명주인형극제",
   "summary": null,
   "address": "강원특별자치도 강릉시 경강로2021번길 9-1 (명주동)",
   "lat": 37.7503981777,
   "lng": 128.8902724158,
   "startDate": "2026-07-22",
   "endDate": "2026-07-26",
   "imageUrl": "https://tong.visitkorea.or.kr/cms/resource/43/4078843_image2_1.jpg",
   "tel": "033-823-3203"
  },
  {
   "tourapiContentId": "3318880",
   "regionSlug": "jeju",
   "name": "제8회 농촌융복합산업 제주국제박람회",
   "summary": null,
   "address": "제주특별자치도 서귀포시 중문관광로 191 (중문동)",
   "lat": 33.2440353493,
   "lng": 126.4207718907,
   "startDate": "2026-07-23",
   "endDate": "2026-07-26",
   "imageUrl": "https://tong.visitkorea.or.kr/cms/resource/10/4066710_image2_1.jpg",
   "tel": "064-722-7915"
  },
  {
   "tourapiContentId": "4077756",
   "regionSlug": "busan",
   "name": "제48차 유네스코 세계유산위원회 특별공연 산화비 : HEXAGRAM 22",
   "summary": null,
   "address": "부산광역시 해운대구 APEC로 55 (우동)",
   "lat": 35.1690637155,
   "lng": 129.1360182683,
   "startDate": "2026-07-23",
   "endDate": "2026-07-24",
   "imageUrl": "https://tong.visitkorea.or.kr/cms/resource/57/4077757_image2_1.jpg",
   "tel": "02-2039-0342"
  },
  {
   "tourapiContentId": "2728613",
   "regionSlug": "jeju",
   "name": "귀몽 제주신화월드",
   "summary": null,
   "address": "제주특별자치도 서귀포시 안덕면 신화역사로304번길 98",
   "lat": 33.3049276506,
   "lng": 126.3151497973,
   "startDate": "2026-07-24",
   "endDate": "2026-08-17",
   "imageUrl": "https://tong.visitkorea.or.kr/cms/resource/60/4081660_image2_1.png",
   "tel": "1670-1188"
  },
  {
   "tourapiContentId": "2486085",
   "regionSlug": "busan",
   "name": "피란수도 부산 국가유산 야행",
   "summary": null,
   "address": "부산광역시 중구 용미길9번길 6-45 (남포동1가) 영도다리(유라리광장)",
   "lat": 35.0964520414,
   "lng": 129.0358787709,
   "startDate": "2026-07-24",
   "endDate": "2026-07-25",
   "imageUrl": "https://tong.visitkorea.or.kr/cms/resource/18/4080818_image2_1.jpg",
   "tel": "010-6443-0799 (피란수도 부산 국가유산 야행 사무국)"
  },
  {
   "tourapiContentId": "2523149",
   "regionSlug": "busan",
   "name": "K-핸드메이드페어 부산 2026",
   "summary": null,
   "address": "부산광역시 해운대구 APEC로 30 (우동)",
   "lat": 35.16576593920963,
   "lng": 129.1349479347421,
   "startDate": "2026-07-24",
   "endDate": "2026-07-26",
   "imageUrl": "https://tong.visitkorea.or.kr/cms/resource/66/4059066_image2_1.jpg",
   "tel": "02-761-2512"
  },
  {
   "tourapiContentId": "2704473",
   "regionSlug": "busan",
   "name": "K-일러스트레이션페어 부산 2026",
   "summary": null,
   "address": "부산광역시 해운대구 APEC로 30 (우동) (우동)",
   "lat": 35.1657825586672,
   "lng": 129.135026643506,
   "startDate": "2026-07-24",
   "endDate": "2026-07-26",
   "imageUrl": null,
   "tel": "02-761-2512"
  },
  {
   "tourapiContentId": "1049327",
   "regionSlug": "ulsan",
   "name": "울산조선해양축제",
   "summary": null,
   "address": "울산광역시 동구 해수욕장10길 일산해수욕장",
   "lat": 35.4952578445,
   "lng": 129.4300133675,
   "startDate": "2026-07-24",
   "endDate": "2026-07-26",
   "imageUrl": "https://tong.visitkorea.or.kr/cms/resource/50/4072450_image2_1.jpg",
   "tel": "052-716-5007"
  },
  {
   "tourapiContentId": "4088149",
   "regionSlug": "busan",
   "name": "발코니 뮤직쇼 앤 스트릿 페스타",
   "summary": null,
   "address": "부산광역시 중구 광복로 72-1 (광복동2가)",
   "lat": 35.0985979131,
   "lng": 129.0327114585,
   "startDate": "2026-07-25",
   "endDate": "2026-07-25",
   "imageUrl": "https://tong.visitkorea.or.kr/cms/resource/50/4088150_image2_1.jpg",
   "tel": "070-4006-6849"
  },
  {
   "tourapiContentId": "2499947",
   "regionSlug": "seoul",
   "name": "성북문화바캉스",
   "summary": null,
   "address": "서울특별시 성북구 정릉로 279 (정릉동)",
   "lat": 37.6038254756,
   "lng": 127.0132924339,
   "startDate": "2026-07-25",
   "endDate": "2026-08-09",
   "imageUrl": "https://tong.visitkorea.or.kr/cms/resource/88/4087988_image2_1.JPG",
   "tel": "02-2038-4901"
  },
  {
   "tourapiContentId": "3329992",
   "regionSlug": "incheon",
   "name": "계양아라온워터축제",
   "summary": null,
   "address": "인천 계양구 장기동 109-1 계양아라온 일원",
   "lat": 37.5746799,
   "lng": 126.7380463,
   "startDate": "2026-07-25",
   "endDate": "2026-07-26",
   "imageUrl": "https://tong.visitkorea.or.kr/cms/resource/05/4082205_image2_1.jpg",
   "tel": "032-450-4103"
  },
  {
   "tourapiContentId": "3507102",
   "regionSlug": "daegu",
   "name": "대구 동구 여름축제 두두썸동",
   "summary": null,
   "address": "대구 동구 불로동 971-3 (지저둔치 임시주차장)",
   "lat": 35.8998279,
   "lng": 128.6288967,
   "startDate": "2026-07-25",
   "endDate": "2026-07-26",
   "imageUrl": "https://tong.visitkorea.or.kr/cms/resource/98/4085498_image2_1.jpg",
   "tel": "053-662-4072"
  },
  {
   "tourapiContentId": "2993769",
   "regionSlug": "andong",
   "name": "안동 수(水)페스타",
   "summary": null,
   "address": "경상북도 안동시 강남로 246 (정하동) 성희여자고등학교",
   "lat": 36.5515310931,
   "lng": 128.7291441776,
   "startDate": "2026-07-25",
   "endDate": "2026-08-02",
   "imageUrl": "https://tong.visitkorea.or.kr/cms/resource/94/4080294_image2_1.jpg",
   "tel": "054-840-3421"
  },
  {
   "tourapiContentId": "2394558",
   "regionSlug": "gangneung",
   "name": "경포 썸머 페스티벌",
   "summary": null,
   "address": "강원특별자치도 강릉시 경포로 515 (안현동)",
   "lat": 37.805223671,
   "lng": 128.9067299347,
   "startDate": "2026-07-30",
   "endDate": "2026-08-05",
   "imageUrl": "https://tong.visitkorea.or.kr/cms/resource/42/4089242_image2_1.png",
   "tel": "033-640-5130"
  },
  {
   "tourapiContentId": "2718984",
   "regionSlug": "seoul",
   "name": "서울일러스트레이션페어V.21",
   "summary": null,
   "address": "서울특별시 강남구 영동대로 513 (삼성동)",
   "lat": 37.51186515083277,
   "lng": 127.0592035846216,
   "startDate": "2026-07-30",
   "endDate": "2026-08-02",
   "imageUrl": "https://tong.visitkorea.or.kr/cms/resource/78/4062778_image2_1.png",
   "tel": "02-2602-8602"
  },
  {
   "tourapiContentId": "1340294",
   "regionSlug": "yeosu",
   "name": "거문도백도 은빛바다체험행사",
   "summary": null,
   "address": "전남광주통합특별시 여수시 삼산면 삼호교길 50",
   "lat": 34.0244579928,
   "lng": 127.3099026974,
   "startDate": "2026-07-31",
   "endDate": "2026-08-01",
   "imageUrl": "https://tong.visitkorea.or.kr/cms/resource/19/4089519_image2_1.jpeg",
   "tel": "061-659-4742"
  },
  {
   "tourapiContentId": "2991796",
   "regionSlug": "seoul",
   "name": "DDP 바캉스: 뮤직페스티벌",
   "summary": null,
   "address": "서울특별시 중구 을지로 281 (을지로7가) 동대문디자인플라자",
   "lat": 37.5660539726,
   "lng": 127.0095547691,
   "startDate": "2026-07-31",
   "endDate": "2026-08-02",
   "imageUrl": "https://tong.visitkorea.or.kr/cms/resource/23/4087823_image2_1.JPG",
   "tel": "02-550-2512"
  },
  {
   "tourapiContentId": "561027",
   "regionSlug": "incheon",
   "name": "인천펜타포트 락 페스티벌",
   "summary": null,
   "address": "인천광역시 연수구 센트럴로 350 (송도동)",
   "lat": 37.4077795259,
   "lng": 126.6324707951,
   "startDate": "2026-07-31",
   "endDate": "2026-08-02",
   "imageUrl": "https://tong.visitkorea.or.kr/cms/resource/65/4070165_image2_1.jpg",
   "tel": "032-899-7423"
  },
  {
   "tourapiContentId": "3514951",
   "regionSlug": "busan",
   "name": "일러스타 페스 12",
   "summary": null,
   "address": "부산광역시 해운대구 APEC로 55 (우동)",
   "lat": 35.1690637155,
   "lng": 129.1360182683,
   "startDate": "2026-08-01",
   "endDate": "2026-08-02",
   "imageUrl": "https://tong.visitkorea.or.kr/cms/resource/25/4084525_image2_1.jpg",
   "tel": "070-8287-2270"
  },
  {
   "tourapiContentId": "3498395",
   "regionSlug": "busan",
   "name": "2026 나이트레이스 인 부산",
   "summary": null,
   "address": "부산광역시 수영구 광안해변로 219 (광안동)",
   "lat": 35.1537727886,
   "lng": 129.1185199367,
   "startDate": "2026-08-01",
   "endDate": "2026-08-01",
   "imageUrl": "https://tong.visitkorea.or.kr/cms/resource/41/4065341_image2_1.jpg",
   "tel": "051-740-4116"
  },
  {
   "tourapiContentId": "2828431",
   "regionSlug": "seoul",
   "name": "한강페스티벌",
   "summary": null,
   "address": "서울특별시 마포구 마포나루길 407 (망원동) 망원한강공원",
   "lat": 37.5557880617,
   "lng": 126.8939537189,
   "startDate": "2026-08-01",
   "endDate": "2026-08-16",
   "imageUrl": "https://tong.visitkorea.or.kr/cms/resource/50/4089550_image2_1.jpg",
   "tel": "02-120"
  },
  {
   "tourapiContentId": "2497537",
   "regionSlug": "seoul",
   "name": "2026 한강나이트워크42K with 토레타!",
   "summary": null,
   "address": "서울특별시 영등포구 여의공원로 68 (여의도동)",
   "lat": 37.524979,
   "lng": 126.937696,
   "startDate": "2026-08-01",
   "endDate": "2026-08-02",
   "imageUrl": "https://tong.visitkorea.or.kr/cms/resource/63/4071363_image2_1.jpg",
   "tel": "070-4705-2008"
  },
  {
   "tourapiContentId": "2644679",
   "regionSlug": "busan",
   "name": "2026 부산국제불교박람회",
   "summary": null,
   "address": "부산광역시 해운대구 APEC로 55 (우동)",
   "lat": 35.1687048508,
   "lng": 129.1354937071,
   "startDate": "2026-08-06",
   "endDate": "2026-08-09",
   "imageUrl": "https://tong.visitkorea.or.kr/cms/resource/92/4077792_image2_1.jpg",
   "tel": "02-2231-2011"
  },
  {
   "tourapiContentId": "2728529",
   "regionSlug": "yeosu",
   "name": "제7회 섬의 날",
   "summary": null,
   "address": "전남광주통합특별시 여수시 박람회길 1 (덕충동)",
   "lat": 34.7509493146,
   "lng": 127.7470910959,
   "startDate": "2026-08-06",
   "endDate": "2026-08-09",
   "imageUrl": "https://tong.visitkorea.or.kr/cms/resource/90/4081290_image2_1.jpg",
   "tel": "02-2058-1070"
  },
  {
   "tourapiContentId": "2557842",
   "regionSlug": "jeonju",
   "name": "전주 가맥축제",
   "summary": null,
   "address": "전북특별자치도 전주시 덕진구 권삼득로 308 (덕진동1가)",
   "lat": 35.8442101179,
   "lng": 127.1292609884,
   "startDate": "2026-08-06",
   "endDate": "2026-08-08",
   "imageUrl": "https://tong.visitkorea.or.kr/cms/resource/43/4086143_image2_1.jpg",
   "tel": "070-8870-6870"
  },
  {
   "tourapiContentId": "142193",
   "regionSlug": "seoul",
   "name": "서울프린지페스티벌2026",
   "summary": null,
   "address": "서울특별시 마포구 월드컵북로 94 (성산동)",
   "lat": 37.5620373293,
   "lng": 126.9150631652,
   "startDate": "2026-08-06",
   "endDate": "2026-08-23",
   "imageUrl": "https://tong.visitkorea.or.kr/cms/resource/22/4087022_image2_1.jpg",
   "tel": "070-7092-8172"
  },
  {
   "tourapiContentId": "142080",
   "regionSlug": "busan",
   "name": "부산바다축제",
   "summary": null,
   "address": "부산광역시 사하구 다대동 다대포 해수욕장",
   "lat": 35.046996,
   "lng": 128.966195,
   "startDate": "2026-08-07",
   "endDate": "2026-08-13",
   "imageUrl": "https://tong.visitkorea.or.kr/cms/resource/40/4085840_image2_1.jpg",
   "tel": "051-713-5000"
  },
  {
   "tourapiContentId": "2989846",
   "regionSlug": "incheon",
   "name": "송도해변축제",
   "summary": null,
   "address": "인천광역시 연수구 아암대로 764 (송도동) 성지아파트 인근",
   "lat": 37.3990127926,
   "lng": 126.6562376599,
   "startDate": "2026-08-08",
   "endDate": "2026-08-15",
   "imageUrl": "https://tong.visitkorea.or.kr/cms/resource/70/4089470_image2_1.JPG",
   "tel": "032-749-7330 / 032-822-1000"
  },
  {
   "tourapiContentId": "507454",
   "regionSlug": "tongyeong",
   "name": "통영한산대첩축제",
   "summary": null,
   "address": "경상남도 통영시 통영해안로 267 (항남동) 통영한산대첩광장",
   "lat": 34.84040498996689,
   "lng": 128.4246286625402,
   "startDate": "2026-08-12",
   "endDate": "2026-08-16",
   "imageUrl": "https://tong.visitkorea.or.kr/cms/resource/08/4041308_image2_1.jpg",
   "tel": "055-640-5631"
  },
  {
   "tourapiContentId": "2736033",
   "regionSlug": "busan",
   "name": "부산인디커넥트페스티벌 2026",
   "summary": null,
   "address": "부산광역시 해운대구 APEC로 55 (우동)",
   "lat": 35.1687048508,
   "lng": 129.1354937071,
   "startDate": "2026-08-14",
   "endDate": "2026-08-16",
   "imageUrl": "https://tong.visitkorea.or.kr/cms/resource/55/4087155_image2_1.jpg",
   "tel": "070-8855-5058"
  },
  {
   "tourapiContentId": "2541883",
   "regionSlug": "gangneung",
   "name": "강릉 국가유산 야행",
   "summary": null,
   "address": "강원특별자치도 강릉시 임영로131번길 6 임영관",
   "lat": 37.7532215016,
   "lng": 128.8920940489,
   "startDate": "2026-08-14",
   "endDate": "2026-08-16",
   "imageUrl": "https://tong.visitkorea.or.kr/cms/resource/77/3317777_image2_1.jpg",
   "tel": "033-823-3206"
  },
  {
   "tourapiContentId": "3485078",
   "regionSlug": "incheon",
   "name": "국가유산 미디어아트",
   "summary": null,
   "address": "인천광역시 강화군 강화읍 북문길 42 12개 지역 내 국가유산  강화(고려궁지 등), 철원(노동당사), 경주(대릉원), 양산(통도사), 진주(진주성), 통영(삼도수군통제영), 군산(구 군산세관 본관 등), 여수(진남관), 익산(미륵사지), 부여(정림사지), 아산(이충무공 유허), 청주(용두사지 철당간 등)",
   "lat": 37.7508207356,
   "lng": 126.4853900771,
   "startDate": "2026-08-14",
   "endDate": "2026-11-08",
   "imageUrl": "https://tong.visitkorea.or.kr/cms/resource/40/4055040_image2_1.jpg",
   "tel": "02-3011-7781"
  },
  {
   "tourapiContentId": "2724153",
   "regionSlug": "gunsan",
   "name": "군산 국가유산 야행",
   "summary": null,
   "address": "전북특별자치도 군산시 구영2길 43 (영화동)",
   "lat": 35.9901979568,
   "lng": 126.7098663883,
   "startDate": "2026-08-14",
   "endDate": "2026-08-16",
   "imageUrl": "https://tong.visitkorea.or.kr/cms/resource/03/4089203_image2_1.jpg",
   "tel": "063-453-2447"
  },
  {
   "tourapiContentId": "4087207",
   "regionSlug": "gyeongju",
   "name": "2026 경주 e스포츠 페스티벌",
   "summary": null,
   "address": "경상북도 경주시 황성공원로 29 (황성동)",
   "lat": 35.8606451724,
   "lng": 129.2090805222,
   "startDate": "2026-08-15",
   "endDate": "2026-08-23",
   "imageUrl": "https://tong.visitkorea.or.kr/cms/resource/91/4087291_image2_1.jpg",
   "tel": "054-776-5956"
  },
  {
   "tourapiContentId": "3351451",
   "regionSlug": "seoul",
   "name": "K-일러스트레이션페어 마곡 2026",
   "summary": null,
   "address": "서울특별시 강서구 마곡중앙로 143 (마곡동)",
   "lat": 37.56672729118652,
   "lng": 126.8253942965121,
   "startDate": "2026-08-20",
   "endDate": "2026-08-23",
   "imageUrl": "https://tong.visitkorea.or.kr/cms/resource/75/4059475_image2_1.jpg",
   "tel": "02-761-2512"
  },
  {
   "tourapiContentId": "3399432",
   "regionSlug": "jeju",
   "name": "2026 제5회 제주비엔날레 허끄곡 모닥치곡 이야홍 : 변용의 기술",
   "summary": null,
   "address": "제주특별자치도 제주시 1100로 2894-78 (연동)",
   "lat": 33.4525500193,
   "lng": 126.489686091,
   "startDate": "2026-08-25",
   "endDate": "2026-11-15",
   "imageUrl": "https://tong.visitkorea.or.kr/cms/resource/77/4073777_image2_1.jpg",
   "tel": "064-710-4300"
  },
  {
   "tourapiContentId": "2651042",
   "regionSlug": "andong",
   "name": "세계유산축전",
   "summary": null,
   "address": "경상북도 안동시 풍천면 하회종가길 2-1",
   "lat": 36.5407525055894,
   "lng": 128.522797583438,
   "startDate": "2026-08-28",
   "endDate": "2026-10-25",
   "imageUrl": "https://tong.visitkorea.or.kr/cms/resource/34/4055834_image2_1.jpg",
   "tel": "02-3011-7783"
  },
  {
   "tourapiContentId": "2991394",
   "regionSlug": "busan",
   "name": "2026 부산나이트워크42K with dsec",
   "summary": null,
   "address": "부산광역시 해운대구 수영강변대로 85 (우동)",
   "lat": 35.1679082179,
   "lng": 129.1273173184,
   "startDate": "2026-08-29",
   "endDate": "2026-08-30",
   "imageUrl": "https://tong.visitkorea.or.kr/cms/resource/37/4069137_image2_1.jpg",
   "tel": "070-4705-2008"
  },
  {
   "tourapiContentId": "3305165",
   "regionSlug": "cheongju",
   "name": "직지문화축제",
   "summary": null,
   "address": "충청북도 청주시 흥덕구 직지대로 713 (운천동) 청주고인쇄박물관",
   "lat": 36.6429424201,
   "lng": 127.4722198763,
   "startDate": "2026-09-04",
   "endDate": "2026-09-06",
   "imageUrl": "https://tong.visitkorea.or.kr/cms/resource/80/4083180_image2_1.JPG",
   "tel": "043-201-3666"
  },
  {
   "tourapiContentId": "2614198",
   "regionSlug": "gwangju",
   "name": "2026 광주 ACE Fair",
   "summary": null,
   "address": "전남광주통합특별시 서구 상무누리로 30",
   "lat": 35.1468884464,
   "lng": 126.8405217823,
   "startDate": "2026-09-10",
   "endDate": "2026-09-10",
   "imageUrl": "https://tong.visitkorea.or.kr/cms/resource/46/4001646_image2_1.jpg",
   "tel": "062-611-2242"
  },
  {
   "tourapiContentId": "573459",
   "regionSlug": "chuncheon",
   "name": "제38회 춘천인형극제",
   "summary": null,
   "address": "강원특별자치도 춘천시 영서로 3017 (사농동)",
   "lat": 37.9209224402,
   "lng": 127.720107584,
   "startDate": "2026-09-10",
   "endDate": "2026-09-16",
   "imageUrl": "https://tong.visitkorea.or.kr/cms/resource/13/4087113_image2_1.png",
   "tel": "033-242-8452"
  },
  {
   "tourapiContentId": "1945450",
   "regionSlug": "jeonju",
   "name": "전주독서대전",
   "summary": null,
   "address": "전북특별자치도 전주시 완산구 전주천동로 20 (교동)",
   "lat": 35.81227650714569,
   "lng": 127.1595840813063,
   "startDate": "2026-09-11",
   "endDate": "2026-09-13",
   "imageUrl": "https://tong.visitkorea.or.kr/cms/resource/69/4060669_image2_1.jpg",
   "tel": "063-230-1858"
  },
  {
   "tourapiContentId": "1018469",
   "regionSlug": "seoul",
   "name": "서울국제작가축제",
   "summary": null,
   "address": "서울특별시 종로구 인사동9길 26 (견지동)",
   "lat": 37.5734199329,
   "lng": 126.9836265705,
   "startDate": "2026-09-11",
   "endDate": "2026-09-16",
   "imageUrl": "https://tong.visitkorea.or.kr/cms/resource/69/4073769_image2_1.jpg",
   "tel": "02-6339-1232"
  },
  {
   "tourapiContentId": "2392105",
   "regionSlug": "daegu",
   "name": "2026 달성 대구현대미술제 Movement: Flow-Ringer-Flux",
   "summary": null,
   "address": "대구광역시 달성군 다사읍 강정본길 57",
   "lat": 35.8412414475,
   "lng": 128.4649553312,
   "startDate": "2026-09-11",
   "endDate": "2026-10-11",
   "imageUrl": "https://tong.visitkorea.or.kr/cms/resource/09/4086009_image2_1.png",
   "tel": "053-668-4245"
  },
  {
   "tourapiContentId": "3532372",
   "regionSlug": "daejeon",
   "name": "대전 중구 북페스티벌",
   "summary": null,
   "address": "대전광역시 중구 중앙로 85 (선화동) 대전 중구 선리단길",
   "lat": 36.3259454984,
   "lng": 127.4202942759,
   "startDate": "2026-09-12",
   "endDate": "2026-09-13",
   "imageUrl": "https://tong.visitkorea.or.kr/cms/resource/83/4081183_image2_1.jpg",
   "tel": "042-825-6781"
  },
  {
   "tourapiContentId": "4033328",
   "regionSlug": "busan",
   "name": "제14회 부산국제항만컨퍼런스",
   "summary": null,
   "address": "부산광역시 동구 충장대로 206 (초량동)",
   "lat": 35.1175129767356,
   "lng": 129.049383440539,
   "startDate": "2026-09-15",
   "endDate": "2026-09-16",
   "imageUrl": "https://tong.visitkorea.or.kr/cms/resource/79/4039679_image2_1.jpg",
   "tel": "051-711-0069"
  },
  {
   "tourapiContentId": "2556687",
   "regionSlug": "seoul",
   "name": "문학주간2026",
   "summary": null,
   "address": "서울특별시 종로구 대학로 104 (동숭동)",
   "lat": 37.580512461,
   "lng": 127.0023742293,
   "startDate": "2026-09-16",
   "endDate": "2026-09-20",
   "imageUrl": "https://tong.visitkorea.or.kr/cms/resource/65/4081065_image2_1.jpg",
   "tel": "070-7954-1369"
  },
  {
   "tourapiContentId": "2412052",
   "regionSlug": "busan",
   "name": "대한민국 청년의 날 축제",
   "summary": null,
   "address": "부산광역시 수영구 광안해변로 219 (광안동) 광안리해수욕장 일원",
   "lat": 35.1537727634,
   "lng": 129.1185199725,
   "startDate": "2026-09-18",
   "endDate": "2026-09-20",
   "imageUrl": "https://tong.visitkorea.or.kr/cms/resource/82/4084482_image2_1.JPG",
   "tel": "02-780-3939"
  },
  {
   "tourapiContentId": "3524889",
   "regionSlug": "seoul",
   "name": "GES2026 (게임 e스포츠 서울)",
   "summary": null,
   "address": "서울특별시 중구 을지로 281 (을지로7가)",
   "lat": 37.5660539726,
   "lng": 127.0095547691,
   "startDate": "2026-09-18",
   "endDate": "2026-09-20",
   "imageUrl": "https://tong.visitkorea.or.kr/cms/resource/58/4078758_image2_1.png",
   "tel": "010-4812-8679"
  },
  {
   "tourapiContentId": "3544886",
   "regionSlug": "seoul",
   "name": "서울어텀페스타",
   "summary": null,
   "address": "서울특별시 중구 세종대로 110 (태평로1가)",
   "lat": 37.5662050219,
   "lng": 126.9777062791,
   "startDate": "2026-09-18",
   "endDate": "2026-09-18",
   "imageUrl": "https://tong.visitkorea.or.kr/cms/resource/66/4031666_image2_1.jpg",
   "tel": "02-758-2037"
  },
  {
   "tourapiContentId": "2751090",
   "regionSlug": "suwon",
   "name": "수원화성 미디어아트",
   "summary": null,
   "address": "경기도 수원시 팔달구 장안동 334",
   "lat": 37.285512,
   "lng": 127.009673,
   "startDate": "2026-09-19",
   "endDate": "2026-10-06",
   "imageUrl": "https://tong.visitkorea.or.kr/cms/resource/46/4076246_image2_1.jpg",
   "tel": "031-290-3622031-5191-3084"
  },
  {
   "tourapiContentId": "506670",
   "regionSlug": "andong",
   "name": "안동국제탈춤페스티벌",
   "summary": null,
   "address": "경상북도 안동시 육사로 239 (운흥동)",
   "lat": 36.5597879985,
   "lng": 128.7307724581,
   "startDate": "2026-09-24",
   "endDate": "2026-10-04",
   "imageUrl": "https://tong.visitkorea.or.kr/cms/resource/06/4025906_image2_1.JPG",
   "tel": "054-840-3400"
  },
  {
   "tourapiContentId": "4080078",
   "regionSlug": "cheongju",
   "name": "2026 대한민국 도시·지역혁신 산업박람회",
   "summary": null,
   "address": "충청북도 청주시 흥덕구 오송읍 오송생명로 250",
   "lat": 36.6265266149,
   "lng": 127.3354600053,
   "startDate": "2026-09-29",
   "endDate": "2026-10-02",
   "imageUrl": "https://tong.visitkorea.or.kr/cms/resource/28/4080328_image2_1.jpg",
   "tel": "02-785-5801"
  },
  {
   "tourapiContentId": "140799",
   "regionSlug": "busan",
   "name": "부산국제록페스티벌",
   "summary": null,
   "address": "부산광역시 사상구 삼락동 29-50",
   "lat": 35.1728573,
   "lng": 128.9681914,
   "startDate": "2026-10-02",
   "endDate": "2026-10-04",
   "imageUrl": "https://tong.visitkorea.or.kr/cms/resource/06/4040606_image2_1.jpg",
   "tel": "051-713-5000"
  },
  {
   "tourapiContentId": "506809",
   "regionSlug": "incheon",
   "name": "소래포구축제",
   "summary": null,
   "address": "인천광역시 남동구 장도로 86-17 (논현동)",
   "lat": 37.3979276988,
   "lng": 126.7393126807,
   "startDate": "2026-10-02",
   "endDate": "2026-10-04",
   "imageUrl": "https://tong.visitkorea.or.kr/cms/resource/93/4074893_image2_1.jpg",
   "tel": "070-8820-4038"
  },
  {
   "tourapiContentId": "1266642",
   "regionSlug": "incheon",
   "name": "부평풍물대축제",
   "summary": null,
   "address": "인천광역시 부평구 부평대로 34-1 (부평동)",
   "lat": 37.4944181127115,
   "lng": 126.722995433556,
   "startDate": "2026-10-02",
   "endDate": "2026-10-04",
   "imageUrl": "https://tong.visitkorea.or.kr/cms/resource/77/4067377_image2_1.jpg",
   "tel": "032-509-7516"
  },
  {
   "tourapiContentId": "613316",
   "regionSlug": "cheongju",
   "name": "청원생명축제",
   "summary": null,
   "address": "충청북도 청주시 청원구 오창읍 미래지로 99 미래지농촌테마공원",
   "lat": 36.7332002013,
   "lng": 127.4073645226,
   "startDate": "2026-10-02",
   "endDate": "2026-10-11",
   "imageUrl": "https://tong.visitkorea.or.kr/cms/resource/14/3549714_image2_1.jpg",
   "tel": "043-201-0254"
  },
  {
   "tourapiContentId": "1846797",
   "regionSlug": "gunsan",
   "name": "군산시간여행축제",
   "summary": null,
   "address": "전북특별자치도 군산시 중앙로1가 11-1",
   "lat": 35.987791,
   "lng": 126.711671,
   "startDate": "2026-10-02",
   "endDate": "2026-10-05",
   "imageUrl": "https://tong.visitkorea.or.kr/cms/resource/48/3561448_image2_1.jpg",
   "tel": "063-454-3300"
  },
  {
   "tourapiContentId": "2554814",
   "regionSlug": "seoul",
   "name": "정조대왕 능행차 공동재현",
   "summary": null,
   "address": "서울특별시 종로구 사직로 161 (세종로)",
   "lat": 37.5760307,
   "lng": 126.9767218661,
   "startDate": "2026-10-04",
   "endDate": "2026-10-04",
   "imageUrl": "https://tong.visitkorea.or.kr/cms/resource/59/4078459_image2_1.png",
   "tel": "서울 02-786-0610수원 031-5191-2367화성 070-4202-1017"
  },
  {
   "tourapiContentId": "914138",
   "regionSlug": "suwon",
   "name": "수원화성문화제",
   "summary": null,
   "address": "경기도 수원시 팔달구 정조로 825 (남창동) 행궁광장",
   "lat": 37.2818820192,
   "lng": 127.0143944638,
   "startDate": "2026-10-04",
   "endDate": "2026-10-11",
   "imageUrl": "https://tong.visitkorea.or.kr/cms/resource/90/4060890_image2_1.jpg",
   "tel": "031-5191-3647"
  },
  {
   "tourapiContentId": "692682",
   "regionSlug": "gwangju",
   "name": "광주 추억의 충장축제",
   "summary": null,
   "address": "전남광주통합특별시 동구 금남로3가",
   "lat": 35.150241,
   "lng": 126.91587,
   "startDate": "2026-10-07",
   "endDate": "2026-10-11",
   "imageUrl": "https://tong.visitkorea.or.kr/cms/resource/71/3584471_image2_1.jpg",
   "tel": "062-608-4672"
  },
  {
   "tourapiContentId": "2990881",
   "regionSlug": "gwangju",
   "name": "광주버스킹월드컵",
   "summary": null,
   "address": "전남광주통합특별시 동구 금남로1가 41 금남지하상가 5·18 민주광장",
   "lat": 35.1474913381,
   "lng": 126.9198016528,
   "startDate": "2026-10-07",
   "endDate": "2026-10-11",
   "imageUrl": "https://tong.visitkorea.or.kr/cms/resource/63/4076763_image2_1.jpg",
   "tel": "062-228-9812"
  },
  {
   "tourapiContentId": "1718137",
   "regionSlug": "gyeongju",
   "name": "신라문화제",
   "summary": null,
   "address": "경상북도 경주시 노동동 261",
   "lat": 35.841281,
   "lng": 129.210644,
   "startDate": "2026-10-09",
   "endDate": "2026-10-11",
   "imageUrl": "https://tong.visitkorea.or.kr/cms/resource/83/4063783_image2_1.JPG",
   "tel": "054-776-5265"
  },
  {
   "tourapiContentId": "1849007",
   "regionSlug": "sejong",
   "name": "세종한글축제",
   "summary": null,
   "address": "세종특별자치시 다솜로 216 (세종동) 세종호수공원, 세종중앙공원",
   "lat": 36.49895345303314,
   "lng": 127.2701840593793,
   "startDate": "2026-10-09",
   "endDate": "2026-10-11",
   "imageUrl": "https://tong.visitkorea.or.kr/cms/resource/16/3553216_image2_1.jpg",
   "tel": "044-850-0591~0594"
  },
  {
   "tourapiContentId": "2877244",
   "regionSlug": "gongju",
   "name": "웰컴투신관동",
   "summary": null,
   "address": "충청남도 공주시 공주대학로 92 (신관동)",
   "lat": 36.4731467766,
   "lng": 127.1378517748,
   "startDate": "2026-10-09",
   "endDate": "2026-10-10",
   "imageUrl": "https://tong.visitkorea.or.kr/cms/resource/03/4081503_image2_1.JPG",
   "tel": "041-852-1321"
  },
  {
   "tourapiContentId": "229048",
   "regionSlug": "busan",
   "name": "동래읍성역사축제",
   "summary": null,
   "address": "부산광역시 동래구 문화로 80 (명륜동)",
   "lat": 35.2120802836554,
   "lng": 129.0905355388211,
   "startDate": "2026-10-16",
   "endDate": "2026-10-18",
   "imageUrl": "https://tong.visitkorea.or.kr/cms/resource/43/3366443_image2_1.jpg",
   "tel": "051-550-4092"
  },
  {
   "tourapiContentId": "2612274",
   "regionSlug": "seoul",
   "name": "관악강감찬축제",
   "summary": null,
   "address": "서울특별시 관악구 낙성대로 77 (봉천동)",
   "lat": 37.4715875501,
   "lng": 126.9587204342,
   "startDate": "2026-10-16",
   "endDate": "2026-10-18",
   "imageUrl": "https://tong.visitkorea.or.kr/cms/resource/31/4073831_image2_1.jpg",
   "tel": "02-828-5766"
  },
  {
   "tourapiContentId": "1307813",
   "regionSlug": "seoul",
   "name": "강동선사문화축제",
   "summary": null,
   "address": "서울특별시 강동구 올림픽로 875 (암사동)",
   "lat": 37.55906143476573,
   "lng": 127.1306006546517,
   "startDate": "2026-10-16",
   "endDate": "2026-10-18",
   "imageUrl": "https://tong.visitkorea.or.kr/cms/resource/77/3541977_image2_1.jpg",
   "tel": "02-3425-5240"
  },
  {
   "tourapiContentId": "1344850",
   "regionSlug": "cheongju",
   "name": "세종대왕과 초정약수축제",
   "summary": null,
   "address": "충청북도 청주시 청원구 내수읍 초정약수로 851 초정행궁",
   "lat": 36.72128130535547,
   "lng": 127.6006759255523,
   "startDate": "2026-10-16",
   "endDate": "2026-10-18",
   "imageUrl": "https://tong.visitkorea.or.kr/cms/resource/82/4064382_image2_1.jpg",
   "tel": "043-223-4048"
  },
  {
   "tourapiContentId": "825295",
   "regionSlug": "gangneung",
   "name": "강릉커피축제",
   "summary": null,
   "address": "강원특별자치도 강릉시 창해로14번길 20-1 (견소동)",
   "lat": 37.7726104945,
   "lng": 128.9473094259,
   "startDate": "2026-10-21",
   "endDate": "2026-10-25",
   "imageUrl": "https://tong.visitkorea.or.kr/cms/resource/24/3546224_image2_1.JPG",
   "tel": "033-647-6802"
  },
  {
   "tourapiContentId": "506616",
   "regionSlug": "jeju",
   "name": "서귀포칠십리축제",
   "summary": null,
   "address": "제주특별자치도 서귀포시 서홍동 684 천지연폭포 인근 주차장",
   "lat": 33.243863,
   "lng": 126.560563,
   "startDate": "2026-10-23",
   "endDate": "2026-10-25",
   "imageUrl": "https://tong.visitkorea.or.kr/cms/resource/11/4039211_image2_1.jpg",
   "tel": "064-760-3942"
  },
  {
   "tourapiContentId": "604097",
   "regionSlug": "gwangju",
   "name": "광주김치축제",
   "summary": null,
   "address": "전남광주통합특별시 서구 내방로 111 (치평동)",
   "lat": 35.1590033102,
   "lng": 126.8530264839,
   "startDate": "2026-10-23",
   "endDate": "2026-10-25",
   "imageUrl": "https://tong.visitkorea.or.kr/cms/resource/32/3545732_image2_1.JPG",
   "tel": "062-613-3955~6"
  },
  {
   "tourapiContentId": "3501104",
   "regionSlug": "ulsan",
   "name": "성남동 커피페스티벌",
   "summary": null,
   "address": "울산광역시 중구 북정동 중구 문화의 거리 일원(시계탑사거리 ~구 울산초 삼거리)",
   "lat": 35.557223,
   "lng": 129.321469,
   "startDate": "2026-10-30",
   "endDate": "2026-11-01",
   "imageUrl": "https://tong.visitkorea.or.kr/cms/resource/74/4078274_image2_1.JPG",
   "tel": "052-290-3541"
  },
  {
   "tourapiContentId": "588175",
   "regionSlug": "pohang",
   "name": "포항국제불빛축제",
   "summary": null,
   "address": "경상북도 포항시 북구 해안로 48 (항구동) 영일대 해수욕장 외 포항시 일원",
   "lat": 36.0530051077193,
   "lng": 129.377594275323,
   "startDate": "2026-11-20",
   "endDate": "2026-11-22",
   "imageUrl": "https://tong.visitkorea.or.kr/cms/resource/88/3484788_image2_1.jpg",
   "tel": "054-289-7852~5"
  }
 ]
}